[{"latitude": "37.5653884466", "price": 560000, "star": 5, "longitude": "126.980979372", "title": "\ub86f\ub370\ud638\ud154"}, {"latitude": "37.5645246509", "price": 520000, "star": 4, "longitude": "126.980074261", "title": "\uc6e8\uc2a4\ud2f4\uc870\uc120\ud638\ud154"}, {"latitude": "37.56572624", "price": 260000, "star": 3, "longitude": "126.979401371", "title": "\ud504\ub808\uc9c0\ub358\ud2b8 \ud638\ud154"}, {"latitude": "37.5648137665", "price": 500000, "star": 4, "longitude": "126.978078122", "title": "\ub354\ud50c\ub77c\uc790"}, {"latitude": "37.5553702892", "price": 480000, "star": 2, "longitude": "126.975932026", "title": "\uc11c\uc6b8\ud790\ud2bc\ud638\ud154"}, {"latitude": "37.5643745498", "price": 380000, "star": 4, "longitude": "126.985668022", "title": "\uc11c\uc6b8\ub85c\uc584\ud638\ud154"}, {"latitude": "37.5683962594", "price": 480000, "star": 1, "longitude": "126.97661426", "title": "\ucf54\ub9ac\uc544\ub098 \ud638\ud154"}, {"latitude": "37.5615933865", "price": 520000, "star": 2, "longitude": "126.988127912", "title": "\uc138\uc885\ud638\ud154"}, {"latitude": "37.5655423862", "price": 340000, "star": 3, "longitude": "126.981067833", "title": "\ub86f\ub370\ud638\ud154\uc11c\uc6b8"}, {"latitude": "37.564946864", "price": 560000, "star": 2, "longitude": "126.995711865", "title": "PJ\ud638\ud154"}, {"latitude": "37.5726795097", "price": 600000, "star": 3, "longitude": "126.984310286", "title": "\uc13c\ud130\ub9c8\ud06c\ud638\ud154"}, {"latitude": "37.568074664", "price": 480000, "star": 3, "longitude": "126.977977033", "title": "\ub274\uad6d\uc81c\ud638\ud154"}, {"latitude": "37.5557653511", "price": 260000, "star": 5, "longitude": "127.005319398", "title": "\uc11c\uc6b8\uc2e0\ub77c\ud638\ud154"}, {"latitude": "37.5618669992", "price": 480000, "star": 1, "longitude": "126.984309751", "title": "\uc0ac\ubcf4\uc774\ud638\ud154"}, {"latitude": "37.5731669483", "price": 460000, "star": 3, "longitude": "126.983364065", "title": "\uc544\ubca4\ud2b8\ub9ac\ud638\ud154"}, {"latitude": "37.5597953551", "price": 300000, "star": 4, "longitude": "126.985447056", "title": "\ud37c\uc2dc\ud53d\ud638\ud154"}, {"latitude": "37.5603355637", "price": 500000, "star": 2, "longitude": "127.002338509", "title": "\uc570\ubc30\uc11c\ub354 \ud638\ud154"}, {"latitude": "37.5679956345", "price": 360000, "star": 4, "longitude": "126.978215827", "title": "\ubca0\uc2a4\ud2b8\uc6e8\uc2a4\ud134\ub274\uc11c\uc6b8"}, {"latitude": "37.5652050038", "price": 400000, "star": 5, "longitude": "126.983743799", "title": "\uba54\ud2b8\ub85c\ud638\ud154"}, {"latitude": "37.5644148619", "price": 400000, "star": 1, "longitude": "126.983018766", "title": "\uc774\ube44\uc2a4 \uc570\ubc30\uc11c\ub354 \uba85\ub3d9"}, {"latitude": "37.5715731585", "price": 440000, "star": 5, "longitude": "126.989793025", "title": "\uc544\ub9c8\ub808"}, {"latitude": "37.560643013", "price": 320000, "star": 4, "longitude": "126.971966327", "title": "\ub77c\ub9c8\ub2e4\ud638\ud154 \uc2a4\uc704\ud2b8 \uc11c\uc6b8 \ub0a8\ub300\ubb38"}, {"latitude": "37.5587471747", "price": 420000, "star": 3, "longitude": "126.980911247", "title": "\ub809\uc2a4\ud638\ud154"}, {"latitude": "37.5608158433", "price": 500000, "star": 2, "longitude": "126.979434311", "title": "\ud638\ud154\uba85\ub3d9"}, {"latitude": "37.5613787423", "price": 360000, "star": 4, "longitude": "126.984112632", "title": "\ud638\ud154 \uc2a4\uce74\uc774\ud30c\ud06c"}, {"latitude": "37.5723984415", "price": 420000, "star": 5, "longitude": "126.989363034", "title": "\ud1b0\uc9c0\ud638\ud154"}, {"latitude": "37.574037571", "price": 580000, "star": 3, "longitude": "126.98822016", "title": "\ud06c\ub77c\uc6b4\ud638\ud154"}, {"latitude": "37.5616744535", "price": 200000, "star": 5, "longitude": "126.986021509", "title": "\ub098\uc778\ud2b8\ub9ac\ud638\ud154"}, {"latitude": "37.5611595353", "price": 280000, "star": 5, "longitude": "126.984817369", "title": "\ub974\uc640\uc9c0\ub974\uc11c\uc6b8\uba85\ub3d9\ud638\ud154"}, {"latitude": "37.5648656832", "price": 460000, "star": 3, "longitude": "126.995701634", "title": "\ud638\ud154\ud53c\uc81c\uc774"}, {"latitude": "37.5610782709", "price": 340000, "star": 1, "longitude": "126.968145933", "title": "\ube0c\ub77c\uc6b4\uc2a4\uc704\ud2b8"}, {"latitude": "37.5615477788", "price": 460000, "star": 1, "longitude": "126.976549357", "title": "\ud504\ub808\uc774\uc800\ud50c\ub808\uc774\uc2a4\ub0a8\ub300\ubb38\ud638\ud154"}, {"latitude": "37.5694587705", "price": 300000, "star": 4, "longitude": "126.989097062", "title": "\ud638\ud154 \ub354 \ub514\uc790\uc774\ub108\uc2a4 \uc885\ub85c"}, {"latitude": "37.5568639804", "price": 460000, "star": 1, "longitude": "126.981955492", "title": "\ud790\ud558\uc6b0\uc2a4"}, {"latitude": "37.5667042215", "price": 500000, "star": 5, "longitude": "126.989405909", "title": "\ud640\ub9ac\ub370\uc774 \uc778 \uc775\uc2a4\ud504\ub808\uc2a4 \uc11c\uc6b8 \uc744\uc9c0\ub85c"}, {"latitude": "37.5507994003", "price": 380000, "star": 4, "longitude": "127.000903684", "title": "\ubc18\uc580\ud2b8\ub9ac \ud074\ub7fd \uc564 \uc2a4\ud30c \uc11c\uc6b8"}, {"latitude": "37.5648118326", "price": 280000, "star": 2, "longitude": "126.985175369", "title": "\ud638\ud154\uc2a4\uce74\uc774\ud30c\ud06c \uc13c\ud2b8\ub7f4\uc810"}, {"latitude": "37.5731338227", "price": 220000, "star": 3, "longitude": "126.988956889", "title": "\ucea3\uce20\ud638\ud154"}, {"latitude": "37.5631203982", "price": 420000, "star": 1, "longitude": "126.978146499", "title": "\ud638\ud154\uc544\ub85c\ud30c"}, {"latitude": "37.5572173913", "price": 240000, "star": 4, "longitude": "126.974888146", "title": "\ud638\ud154\ub9c8\ub204"}, {"latitude": "37.5624154061", "price": 340000, "star": 1, "longitude": "126.978937124", "title": "\uc2e0\uc2e0\ud638\ud154"}, {"latitude": "37.5715934985", "price": 520000, "star": 3, "longitude": "126.990064439", "title": "\ud638\ud154\uc2a4\ud0c0"}, {"latitude": "37.565292279", "price": 500000, "star": 4, "longitude": "126.966786156", "title": "\uc2e0\ub77c\uc2a4\ud14c\uc774 \uc11c\ub300\ubb38"}, {"latitude": "37.5617846104", "price": 560000, "star": 2, "longitude": "126.989415682", "title": "\uc774\ube44\uc2a4 \uc2a4\ud0c0\uc77c \uc570\ubc30\uc11c\ub354 \uc11c\uc6b8 \uba85\ub3d9"}, {"latitude": "37.5671524293", "price": 220000, "star": 1, "longitude": "126.991244972", "title": "\uc2a4\ud0c0\uc988\ud638\ud154 \uba85\ub3d9 1\ud638\uc810"}, {"latitude": "37.5745079905", "price": 600000, "star": 1, "longitude": "126.989493055", "title": "\uc774\ube44\uc2a4 \uc570\ubc30\uc11c\ub354 \uc778\uc0ac\ub3d9"}, {"latitude": "37.5663479361", "price": 500000, "star": 3, "longitude": "126.99623642", "title": "\ubca0\uc2a4\ud2b8\uc6e8\uc2a4\ud134 \uad6d\ub3c4\ud638\ud154"}, {"latitude": "37.5615668741", "price": 240000, "star": 2, "longitude": "126.977714936", "title": "\ud638\ud154 \uc544\uc774\ub9b0"}, {"latitude": "37.5627220884", "price": 280000, "star": 1, "longitude": "126.992628958", "title": "\ud2f0\ub9c8\ud06c\ud638\ud154"}, {"latitude": "37.5626872727", "price": 300000, "star": 1, "longitude": "126.990659916", "title": "\uc2a4\ud0c0\uc988\ud638\ud154 \uba85\ub3d9 2\ud638\uc810"}, {"latitude": "37.5571503968", "price": 420000, "star": 2, "longitude": "126.979642693", "title": "\uc5d4\ud3ec\uc2dc\uc98c \ud638\ud154"}, {"latitude": "37.5687161988", "price": 600000, "star": 1, "longitude": "126.990771114", "title": "\ud638\ud154\uc138\ube10\uc2a4\ud2b8\ub9ac\ud2b8\uc11c\uc6b8"}, {"latitude": "37.5608025812", "price": 300000, "star": 4, "longitude": "126.986271003", "title": "\ud638\ud154\ud504\ub9b0\uc2a4\uc11c\uc6b8"}, {"latitude": "37.5622067356", "price": 400000, "star": 2, "longitude": "126.9766875", "title": "\ud638\ud154\ud1b5 \uba85\ub3d9"}, {"latitude": "37.5610503191", "price": 260000, "star": 3, "longitude": "126.983641697", "title": "\ub370\uc774\uc988\ud638\ud154"}, {"latitude": "37.5548692642", "price": 220000, "star": 2, "longitude": "126.974263836", "title": "K POP <b>HOTEL</b> \uc11c\uc6b8\uc5ed\uc810"}, {"latitude": "37.5637660645", "price": 560000, "star": 5, "longitude": "126.985110302", "title": "\ud638\ud154\uc81c\uc774\ud790"}, {"latitude": "37.561756618", "price": 360000, "star": 4, "longitude": "126.98719756", "title": "\ub354 \uadf8\ub79c\ub4dc\ud638\ud154 \uba85\ub3d9"}, {"latitude": "37.5604106531", "price": 360000, "star": 3, "longitude": "126.983650375", "title": "\ub274\uc624\ub9ac\uc5d4\ud0c8 \ud638\ud154"}, {"latitude": "37.5706154238", "price": 460000, "star": 5, "longitude": "126.985277857", "title": "\uc11c\uc6b8YMCA\ud638\ud154"}, {"latitude": "37.5613968242", "price": 520000, "star": 3, "longitude": "126.987270337", "title": "\ud638\ud154\uc2a4\uce74\uc774\ud30c\ud06c \uba85\ub3d93\ud638\uc810"}, {"latitude": "37.5617483793", "price": 320000, "star": 4, "longitude": "126.989393533", "title": "\uc774\ube44\uc2a4\uc2a4\ud0c0\uc77c\uc570\ubc30\uc11c\ub354 \uba85\ub3d9"}, {"latitude": "37.5650719385", "price": 440000, "star": 5, "longitude": "126.985036013", "title": "\ud638\ud154\uc2a4\uce74\uc774\ud30c\ud06c \uba85\ub3d92\ud638\uc810"}, {"latitude": "37.5734489035", "price": 360000, "star": 5, "longitude": "126.984718714", "title": "\uc138\ub9bc\ud638\ud154"}, {"latitude": "37.5731431684", "price": 520000, "star": 3, "longitude": "126.984790782", "title": "\ud638\ud154\uc36c\ube44"}, {"latitude": "37.5622358176", "price": 520000, "star": 3, "longitude": "126.977966143", "title": "\ud638\ud154\uc544\uc774\ub9b0\uc2dc\ud2f0"}, {"latitude": "37.5670102893", "price": 280000, "star": 2, "longitude": "126.982021356", "title": "\uc2a4\ubab0\ud558\uc6b0\uc2a4\ube45\ub3c4\uc5b4"}, {"latitude": "37.5668754412", "price": 220000, "star": 5, "longitude": "126.982057148", "title": "\ud638\ud154\ubd09\ubd09"}, {"latitude": "37.552057066", "price": 460000, "star": 1, "longitude": "126.974155202", "title": "<b>HOTEL</b> STAY inn"}, {"latitude": "37.5666901709", "price": 200000, "star": 2, "longitude": "127.002604787", "title": "\ud638\ud154\uc544\uce74\uc2dc\uc544"}, {"latitude": "37.5566883717", "price": 200000, "star": 2, "longitude": "126.982489829", "title": "\ub0a8\uc0b0\ud790\ud638\ud154"}, {"latitude": "37.557898878", "price": 520000, "star": 5, "longitude": "126.978670446", "title": "\ub0a8\uc0b0\uc2dc\ud2f0\ud638\ud154"}, {"latitude": "37.5609180236", "price": 340000, "star": 4, "longitude": "126.99134024", "title": "\uc544\uc2a4\ud1a0\ub9ac\uc544\uad00\uad11\ud638\ud154"}, {"latitude": "37.5510902833", "price": 500000, "star": 4, "longitude": "126.972810366", "title": "\ud3ec\ud3ec\uc778\uce20 \ubc14\uc774 \uc250\ub77c\ud1a4 \uc11c\uc6b8\ub0a8\uc0b0"}, {"latitude": "37.5583242218", "price": 280000, "star": 5, "longitude": "126.980973591", "title": "\uc11c\uc6b8\uc2dc\ud2f0\ud638\ud154"}, {"latitude": "37.5649205953", "price": 400000, "star": 5, "longitude": "126.978970893", "title": "\ud504\ub77c\uc774\ube57\ub77c\ubca8"}, {"latitude": "37.5713724051", "price": 280000, "star": 3, "longitude": "126.985290241", "title": "\ud638\ud154\ud1b5"}, {"latitude": "37.5706426463", "price": 320000, "star": 1, "longitude": "126.985300129", "title": "\uc11c\uc6b8 YMCA \uad00\uad11\ud638\ud154"}, {"latitude": "37.5693527923", "price": 400000, "star": 4, "longitude": "126.98829477", "title": "\ubd80\ud2f0\ud06c\ud638\ud154k \uc885\ub85c\uc810"}, {"latitude": "37.5659274249", "price": 380000, "star": 5, "longitude": "127.002977167", "title": "\ub77c\ub9c8\ub2e4 \ub3d9\ub300\ubb38"}, {"latitude": "37.5692315697", "price": 560000, "star": 2, "longitude": "126.99097925", "title": "\ub9ac\uc548\ud638\ud154"}, {"latitude": "37.5581331023", "price": 260000, "star": 2, "longitude": "126.979708539", "title": "\ub8e8\ubbf8\uc544 \ud638\ud154"}, {"latitude": "37.5693527923", "price": 220000, "star": 1, "longitude": "126.98829477", "title": "\uc885\ub85c\ubd80\ud2f0\ud06cK\ud638\ud154"}, {"latitude": "37.5688424589", "price": 240000, "star": 1, "longitude": "126.992897564", "title": "\uc13c\ucd94\ub7f4\uad00\uad11\ud638\ud154"}, {"latitude": "37.5566270577", "price": 560000, "star": 3, "longitude": "126.993220219", "title": "\ud30c\ud06c\ubdf0\ud638\ud154"}, {"latitude": "37.5689680751", "price": 300000, "star": 5, "longitude": "126.99072244", "title": "\ud638\ud154\ub098\ud3ec\ub808"}, {"latitude": "37.5582227076", "price": 200000, "star": 2, "longitude": "126.979650727", "title": "\ub274\ucf54\ub9ac\uc544\ud638\ud154"}, {"latitude": "37.5689877079", "price": 600000, "star": 3, "longitude": "126.991967373", "title": "<b>HOTEL</b> GS"}, {"latitude": "37.5640343528", "price": 520000, "star": 4, "longitude": "127.000738517", "title": "\ud604\ub300\ub808\uc9c0\ub358\uc2a4"}, {"latitude": "37.5620635215", "price": 320000, "star": 5, "longitude": "126.988313984", "title": "Click <b>Hotel</b>"}, {"latitude": "37.5688876023", "price": 540000, "star": 5, "longitude": "126.992908277", "title": "\uc388\uce04\ub7f4\uad00\uad11\ud638\ud154"}, {"latitude": "37.5734191209", "price": 560000, "star": 2, "longitude": "126.988602097", "title": "\ube44\uc988\ud638\ud154"}, {"latitude": "37.5719595793", "price": 560000, "star": 5, "longitude": "126.998142286", "title": "\ub77c\ub9c8\ub2e4 \uc885\ub85c"}, {"latitude": "37.5613727472", "price": 380000, "star": 1, "longitude": "126.984463596", "title": "\uc774\ucf54\ub178\ubbf8\ud638\ud154 \uba85\ub3d9\ud504\ub9ac\ubbf8\uc5b4\uc810"}, {"latitude": "37.5586459251", "price": 320000, "star": 5, "longitude": "126.980663619", "title": "\ud638\ud154\ubbf8\ub3c4"}, {"latitude": "37.574917582", "price": 440000, "star": 2, "longitude": "126.988921484", "title": "\uc544\uc774\ucf58\ud638\ud154"}, {"latitude": "37.5699723833", "price": 200000, "star": 5, "longitude": "126.979660473", "title": "\uc0e4\ud504\ud2f0\uc774\uc528\uc564\uc5d8"}, {"latitude": "37.564120539", "price": 600000, "star": 4, "longitude": "126.985467715", "title": "\uc774\ucf54\ub178\ubbf8\ud638\ud154 \uba85\ub3d9\uc13c\ud2b8\ub7f4\uc810"}, {"latitude": "37.5653384007", "price": 220000, "star": 3, "longitude": "126.967940098", "title": "\uc6b0\ub9bc\uc5e0\uc5d0\uc2a4 \ubc14\ube44\uc5e5"}, {"latitude": "37.5655700591", "price": 200000, "star": 1, "longitude": "126.991651144", "title": "\uc138\ucee8\ub4dc\uce74\uc0ac"}, {"latitude": "37.5614067427", "price": 500000, "star": 4, "longitude": "126.995827235", "title": "\ubca8\ub77c\uc2a4\uc704\ud2b8\ud638\ud154"}, {"latitude": "37.5609785039", "price": 280000, "star": 5, "longitude": "126.989981175", "title": "\uc6d0\uc988\ube4c"}, {"latitude": "37.5568591892", "price": 480000, "star": 1, "longitude": "126.97722458", "title": "\ucf00\uc774\ud31d\ub808\uc9c0\ub358\uc2a4 \uc11c\uc6b8\ud0c0\uc6cc\uc810"}, {"latitude": "37.5722636931", "price": 600000, "star": 2, "longitude": "126.988357331", "title": "\ud638\ud154\ud329\ud1a0\ub9ac"}, {"latitude": "37.5678057447", "price": 300000, "star": 1, "longitude": "126.982316179", "title": "\uc124\uc545\ud30c\ud06c\ud638\ud154 \uc11c\uc6b8\uc0ac\ubb34\uc18c"}, {"latitude": "37.5750123219", "price": 280000, "star": 3, "longitude": "126.989463607", "title": "seoul53<b>hotel</b>"}, {"latitude": "37.5771613713", "price": 240000, "star": 1, "longitude": "126.991053537", "title": "AMASS <b>HOTEL</b>"}, {"latitude": "37.5758051381", "price": 540000, "star": 4, "longitude": "126.996856846", "title": "\uace0\uad81\ud638\ud154"}, {"latitude": "37.5616725175", "price": 560000, "star": 2, "longitude": "126.990005775", "title": "\ud638\ud154\uc138\uc885\uc778"}, {"latitude": "37.5520391096", "price": 340000, "star": 5, "longitude": "126.968983401", "title": "\uc11c\uc6b8\ud504\ub77c\uc790\ud638\ud154 \uc678\uc2dd\uc0ac\uc5c5\ubd80"}, {"latitude": "37.5767441536", "price": 540000, "star": 1, "longitude": "126.989677979", "title": "\ub178\ube14\ud638\ud154"}, {"latitude": "37.564707437", "price": 540000, "star": 4, "longitude": "127.008981335", "title": "\ud1a0\uc694\ucf54\uc778\ud638\ud154"}, {"latitude": "37.5727437842", "price": 340000, "star": 5, "longitude": "126.999241209", "title": "\ud638\ud154\uc573\ud648"}, {"latitude": "37.5607337468", "price": 560000, "star": 3, "longitude": "126.99721714", "title": "\ud638\ud154\uc544\ub760 \ucda9\ubb34\ub85c\uc810"}, {"latitude": "37.5396965257", "price": 580000, "star": 5, "longitude": "126.997475937", "title": "\uadf8\ub79c\ub4dc\ud558\uc58f\ud2b8 \uc11c\uc6b8"}, {"latitude": "37.5642778134", "price": 280000, "star": 1, "longitude": "126.998629885", "title": "\uc9c4\uc9c0\uc559\ud638\ud154"}, {"latitude": "37.5691322732", "price": 600000, "star": 3, "longitude": "126.990957947", "title": "\ub458\ub85c\uc2a4\ud638\ud154"}, {"latitude": "37.5728128381", "price": 460000, "star": 4, "longitude": "126.960263662", "title": "\ub3c5\ub9bd\ubb38 \ubaa8\ud154"}, {"latitude": "37.5652771234", "price": 400000, "star": 2, "longitude": "127.002793393", "title": "\ubca0\uc774\ud2bc\ud638\ud154"}, {"latitude": "37.5642539969", "price": 540000, "star": 2, "longitude": "127.002207091", "title": "\ud638\ud154 \uc2a4\uce74\uc774\ud30c\ud06c \ub3d9\ub300\ubb381\ud638\uc810"}, {"latitude": "37.5762627218", "price": 540000, "star": 2, "longitude": "126.998752658", "title": "\uba54\uc774\ud50c\ub808\uc774\uc2a4\ud638\ud154"}, {"latitude": "37.5670818027", "price": 540000, "star": 3, "longitude": "126.991415719", "title": "\uc368\ud2bc\uba85\ub3d9"}, {"latitude": "37.5703931525", "price": 280000, "star": 2, "longitude": "127.008996668", "title": "JW \uba54\ub9ac\uc5b4\ud2b8 \ub3d9\ub300\ubb38 \uc2a4\ud018\uc5b4 \uc11c\uc6b8"}, {"latitude": "37.574890457", "price": 340000, "star": 3, "longitude": "126.988910529", "title": "\ud638\ud154\uc544\uc774\ucf58"}, {"latitude": "37.5634086351", "price": 560000, "star": 1, "longitude": "126.992834789", "title": "\uccad\uc0b0\ubb3c\uc0b0"}, {"latitude": "37.5446772777", "price": 280000, "star": 4, "longitude": "126.950514672", "title": "\ub86f\ub370\uc2dc\ud2f0\ud638\ud154\ub9c8\ud3ec"}, {"latitude": "37.5659667074", "price": 480000, "star": 1, "longitude": "127.003361508", "title": "\ub274\ucc9c\uc9c0\ud638\ud154"}, {"latitude": "37.5472553038", "price": 420000, "star": 5, "longitude": "126.972172607", "title": "\uc5d0\uc5b4\ud154\ubc15\uc0ac"}, {"latitude": "37.5821048244", "price": 560000, "star": 4, "longitude": "126.989616959", "title": "\ud68c\ud654\ub2f9"}, {"latitude": "37.5816263446", "price": 500000, "star": 2, "longitude": "126.986351392", "title": "\ud574\uc778\uc815"}, {"latitude": "37.5715504494", "price": 540000, "star": 3, "longitude": "127.003038159", "title": "\ud638\ud154\ud1b5"}, {"latitude": "37.559054696", "price": 580000, "star": 1, "longitude": "127.002174469", "title": "\uc758\uc885\uac1c\ubc1c"}, {"latitude": "37.5631289216", "price": 600000, "star": 1, "longitude": "127.00556121", "title": "\uc601\ube48\ud638\ud154"}, {"latitude": "37.5659393929", "price": 240000, "star": 5, "longitude": "127.003327913", "title": "\ud37c\uc2dc\ud53d\ud638\ud154 \ubb34\uac90"}, {"latitude": "37.5642907253", "price": 480000, "star": 5, "longitude": "127.008715185", "title": "\uc774\ube44\uc2a4\ubc84\uc82f \uc570\ubc30\uc11c\ub354 \ub3d9\ub300\ubb38"}, {"latitude": "37.5409666627", "price": 520000, "star": 1, "longitude": "126.972247512", "title": "\uac00\uc57c\uad00\uad11\ud638\ud154"}, {"latitude": "37.566597014", "price": 220000, "star": 4, "longitude": "127.006522617", "title": "\ucf00\uc774\ud31d\ud638\ud154 \ub3d9\ub300\ubb38\uc810"}, {"latitude": "37.546322124", "price": 600000, "star": 2, "longitude": "126.971585627", "title": "\ud638\ud154119"}, {"latitude": "37.5643562991", "price": 420000, "star": 5, "longitude": "127.005793941", "title": "\ud638\ud154\ud328\uc2a4\uae00\ub85c\ubc8c"}, {"latitude": "37.5748615466", "price": 340000, "star": 4, "longitude": "127.001409156", "title": "\uc11c\uc6b8\uba54\ub4dc\ud50c\ub7ec\uc2a4"}, {"latitude": "37.5622745758", "price": 280000, "star": 3, "longitude": "127.006828956", "title": "\uc368\ubbf8\ud2b8\ud638\ud154"}, {"latitude": "37.5663318041", "price": 260000, "star": 3, "longitude": "127.004986671", "title": "\uc800\uc2a4\ud2b8\uc2a4\ud14c\uc774"}, {"latitude": "37.5670380958", "price": 580000, "star": 2, "longitude": "127.006471488", "title": "\uc774\ucf54\ub178\ubbf8\ud638\ud154 \ub3d9\ub300\ubb38\uc810"}, {"latitude": "37.5414971342", "price": 280000, "star": 1, "longitude": "126.972115766", "title": "\ub808\uc778\ubcf4\uc6b0 \ud638\ud154"}, {"latitude": "37.5648236012", "price": 340000, "star": 5, "longitude": "127.007791266", "title": "\ucf00\uc774\uc640\uc774\ud5e4\ub9ac\ud2f0\uc9c0\ud638\ud154"}, {"latitude": "37.5709725048", "price": 300000, "star": 3, "longitude": "127.010392718", "title": "\ub3d9\ub300\ubb38\ud638\ud154"}, {"latitude": "37.5404167956", "price": 540000, "star": 2, "longitude": "126.972221102", "title": "\uc5d8\ub974\uc778\ud638\ud154"}, {"latitude": "37.5349246885", "price": 580000, "star": 1, "longitude": "126.993670063", "title": "\ud574\ubc00\ud134 \ud638\ud154"}, {"latitude": "37.5559153345", "price": 240000, "star": 2, "longitude": "126.945682971", "title": "\ud1a0\ub9ac\ud638\ud154"}, {"latitude": "37.5557561512", "price": 340000, "star": 2, "longitude": "127.005296884", "title": "\uc2e0\ub77c\uc20d"}, {"latitude": "37.5716075058", "price": 220000, "star": 1, "longitude": "127.011980502", "title": "\ud638\ud154\uac00\uc628"}, {"latitude": "37.5714634494", "price": 200000, "star": 4, "longitude": "127.011993723", "title": "\ud638\ud154\ud1b5 \ube44\ubc14\uccb4"}, {"latitude": "37.5715964148", "price": 380000, "star": 4, "longitude": "127.0117316", "title": "\uc528\ud2f0\ub370\uc774\uc988"}, {"latitude": "37.5890686366", "price": 380000, "star": 3, "longitude": "126.934085609", "title": "\uadf8\ub79c\ub4dc\ud790\ud2bc\uc11c\uc6b8"}, {"latitude": "37.5409003886", "price": 420000, "star": 4, "longitude": "126.948315725", "title": "\ubca0\uc2a4\ud2b8\uc6e8\uc2a4\ud134\ud504\ub9ac\ubbf8\uc5b4\uc11c\uc6b8\uac00\ub4e0\ud638\ud154"}, {"latitude": "37.5709718292", "price": 320000, "star": 5, "longitude": "127.014626517", "title": "\ud638\ud154\uac00\uc628\uace8\ub4e0\ud30c\ud06c"}, {"latitude": "37.5714207669", "price": 360000, "star": 2, "longitude": "127.012277295", "title": "\ud638\ud154FA"}, {"latitude": "37.5718997491", "price": 240000, "star": 5, "longitude": "127.013527546", "title": "\ud638\ud154\ud050\ube44"}, {"latitude": "37.5702228623", "price": 540000, "star": 1, "longitude": "127.015575945", "title": "\uc0bc\ud638\uad00\uad11\ud638\ud154"}, {"latitude": "37.5720615413", "price": 240000, "star": 1, "longitude": "127.013480133", "title": "\ud638\ud154\ube44\ucf54\uc778"}, {"latitude": "37.5570393031", "price": 300000, "star": 5, "longitude": "126.941388906", "title": "\ud638\ud154\ud799"}, {"latitude": "37.5567954769", "price": 320000, "star": 4, "longitude": "126.938313833", "title": "\ud638\ud154\uc774\ucc44"}, {"latitude": "37.5660002539", "price": 440000, "star": 4, "longitude": "127.015971026", "title": "\ud22c\uc2a4\ud0c0"}, {"latitude": "37.5565612362", "price": 320000, "star": 1, "longitude": "126.938317152", "title": "\ubc14\ub871\ub4dc\ube60\ub9ac\ud638\ud154"}, {"latitude": "37.5354323722", "price": 540000, "star": 5, "longitude": "126.99827973", "title": "\uc544\uc774\ud53c\ubd80\ud2f0\ud06c\ud638\ud154"}, {"latitude": "37.5565676027", "price": 420000, "star": 5, "longitude": "126.938022793", "title": "\ub098\uc778\uc2a4\ud0c0 \ud638\ud154"}, {"latitude": "37.5187940674", "price": 340000, "star": 4, "longitude": "127.018106282", "title": "\ub354 \ub9ac\ubc84\uc0ac\uc774\ub4dc \ud638\ud154"}, {"latitude": "37.5104115854", "price": 500000, "star": 3, "longitude": "127.04529485", "title": "\ub77c\ub9c8\ub2e4\uc11c\uc6b8\ud638\ud154"}, {"latitude": "37.5341793677", "price": 540000, "star": 1, "longitude": "126.996090098", "title": "ITW\ud638\ud154"}, {"latitude": "37.5255778003", "price": 380000, "star": 5, "longitude": "126.926718438", "title": "\ucf58\ub798\ub4dc \uc11c\uc6b8\ud638\ud154"}, {"latitude": "37.5009885488", "price": 540000, "star": 3, "longitude": "127.001872229", "title": "\ub354\ud314\ub798\uc2a4\ud638\ud154 \uc11c\uc6b8"}, {"latitude": "37.5404359813", "price": 340000, "star": 2, "longitude": "126.947767775", "title": "\ubca0\uc2a4\ud2b8\uc6e8\uc2a4\ud134 \uc778\ud130\ub0b4\uc154\ub110 \ucf54\ub9ac\uc544"}, {"latitude": "37.5222304538", "price": 380000, "star": 1, "longitude": "127.019599869", "title": "\ub77c\uae4c\uc0ac\ud638\ud154"}, {"latitude": "37.5178225657", "price": 440000, "star": 1, "longitude": "127.024838479", "title": "\uc601\ub3d9\ud638\ud154"}, {"latitude": "37.5566612835", "price": 520000, "star": 1, "longitude": "126.939424904", "title": "\uc624\ub80c\uc9c0\uce74\uc6b4\ud2f0\ud638\ud154"}, {"latitude": "37.5040401424", "price": 240000, "star": 3, "longitude": "127.004727063", "title": "JW \uba54\ub9ac\uc5b4\ud2b8\ud638\ud154 \uc11c\uc6b8"}, {"latitude": "37.5059349747", "price": 220000, "star": 1, "longitude": "127.031089259", "title": "\ud638\ud154\uc0bc\uc815"}, {"latitude": "37.535397676", "price": 460000, "star": 5, "longitude": "126.998438602", "title": "IP\ubd80\ub760\ub044\ud638\ud154"}, {"latitude": "37.5535694641", "price": 500000, "star": 4, "longitude": "126.936277106", "title": "\ub77c\ub258"}, {"latitude": "37.5735144624", "price": 220000, "star": 1, "longitude": "127.022426974", "title": "\ubaa8\ub2dd\uc2a4\uce74\uc774 \ub808\uc9c0\ub358\uc2a4"}, {"latitude": "37.5762570519", "price": 560000, "star": 3, "longitude": "127.026115814", "title": "\ub77c\ub9c8\ub2e4\uc559\ucf54\ub974 \uc11c\uc6b8\ub3d9\ub300\ubb38\ud638\ud154"}, {"latitude": "37.5765241998", "price": 460000, "star": 2, "longitude": "127.026825571", "title": "\ud638\ud154 \ubd80\ud2f0\ud06c\ub098\uc778"}, {"latitude": "37.5660472003", "price": 500000, "star": 5, "longitude": "127.022716863", "title": "\ud06c\ub9ac\uc2a4\ud2f0\ud638\ud154"}, {"latitude": "37.5824075646", "price": 280000, "star": 5, "longitude": "127.021314522", "title": "\ube0c\ub77c\uc6b4\uad00\uad11\ud638\ud154"}, {"latitude": "37.5303220542", "price": 260000, "star": 2, "longitude": "126.925258915", "title": "\uc5ec\uc758\ub3c4\ud638\ud154"}, {"latitude": "37.5749450244", "price": 200000, "star": 3, "longitude": "126.935599919", "title": "\uc640\uc774 \ub808\uc9c0\ub358\uc2a4"}, {"latitude": "37.5286491026", "price": 480000, "star": 4, "longitude": "126.993165943", "title": "\ud638\ud154 \uce90\ud53c\ud0c8"}, {"latitude": "37.5545411144", "price": 580000, "star": 2, "longitude": "126.921199416", "title": "\ud638\ud154\uc11c\uad50"}, {"latitude": "37.5259542628", "price": 540000, "star": 5, "longitude": "127.054204473", "title": "\uc5d8\ub8e8\uc774 \ud638\ud154"}, {"latitude": "37.5553600375", "price": 480000, "star": 4, "longitude": "127.110513976", "title": "\uc6cc\ucee4\ud790"}, {"latitude": "37.4972512702", "price": 260000, "star": 1, "longitude": "126.986224827", "title": "\ub974\ub124\uc0c1\uc2a4\ud638\ud154"}, {"latitude": "37.6010670174", "price": 380000, "star": 5, "longitude": "127.033222059", "title": "\ud640\ub9ac\ub370\uc774\uc778\uc131\ubd81"}, {"latitude": "37.5054226628", "price": 200000, "star": 3, "longitude": "127.029048689", "title": "\ub178\ubcf4\ud154\uc570\ubc30\uc11c\ub354 \uac15\ub0a8"}, {"latitude": "37.5676366153", "price": 540000, "star": 2, "longitude": "126.970070503", "title": "\ud504\ub780\uce58\uc2a4\ucf54 \uad50\uc721\ud68c\uad00"}, {"latitude": "37.5545935057", "price": 560000, "star": 5, "longitude": "126.934927075", "title": "K\uac8c\uc2a4\ud2b8\ud558\uc6b0\uc2a4 \uc2e0\ucd0c2"}, {"latitude": "37.5244246179", "price": 560000, "star": 3, "longitude": "127.052221304", "title": "\ud638\ud154 \ud504\ub9ac\ub9c8"}, {"latitude": "37.5031546795", "price": 500000, "star": 4, "longitude": "127.041530397", "title": "\ub974\ub124\uc0c1\uc2a4 \uc11c\uc6b8\ud638\ud154"}, {"latitude": "37.5927564954", "price": 520000, "star": 2, "longitude": "127.018654036", "title": "D.H\ub974\ub124\uc0c1\uc2a4\ud638\ud154"}, {"latitude": "37.5533748123", "price": 380000, "star": 5, "longitude": "126.919778879", "title": "\uba54\ub9ac\uace8\ub4dc\ud638\ud154"}, {"latitude": "37.5626683719", "price": 600000, "star": 1, "longitude": "127.03479309", "title": "\ud638\ud154\uceec\ub9ac\ub10c \ub3c4\uc120"}, {"latitude": "37.5519762207", "price": 220000, "star": 5, "longitude": "126.917592161", "title": "\ud638\ud154 \ub354 \ub514\uc790\uc774\ub108\uc2a4 \ud64d\ub300"}, {"latitude": "37.5129948525", "price": 360000, "star": 1, "longitude": "127.057308804", "title": "\uc778\ud130\ucee8\ud2f0\ub128\ud0c8 \uc11c\uc6b8 \ucf54\uc5d1\uc2a4"}, {"latitude": "37.6105083818", "price": 320000, "star": 1, "longitude": "127.030834768", "title": "\ud638\ud154\ube45\ud1a0\ub9ac\uc544"}, {"latitude": "37.5048756729", "price": 380000, "star": 3, "longitude": "127.027178251", "title": "\ub9ac\uce20\uce7c\ud2bc\ud638\ud154\uc11c\uc6b8"}, {"latitude": "37.5275387455", "price": 540000, "star": 4, "longitude": "127.029565778", "title": "\ud31d\uadf8\ub9b0\ud638\ud154"}, {"latitude": "37.6095612748", "price": 520000, "star": 2, "longitude": "126.975179103", "title": "\ud0b4\uc2a4\uad00\uad11\ud638\ud154"}, {"latitude": "37.5645162862", "price": 480000, "star": 4, "longitude": "127.03599177", "title": "\ubca0\ub2c8\ud0a4\uc544\ud638\ud154\ube44\uc804"}, {"latitude": "37.5096262797", "price": 240000, "star": 2, "longitude": "127.060880159", "title": "\uadf8\ub79c\ub4dc \uc778\ud130\ucee8\ud2f0\ub128\ud0c8 \uc11c\uc6b8 \ud30c\ub974\ub098\uc2a4"}, {"latitude": "37.5555970727", "price": 500000, "star": 5, "longitude": "126.920403279", "title": "\ud638\ud154 \ub514\uc624\ub808"}, {"latitude": "37.5637454923", "price": 380000, "star": 5, "longitude": "127.035390451", "title": "\uc544\ubaa8\ub809\uc2a4\ud638\ud154"}, {"latitude": "37.5800618059", "price": 520000, "star": 1, "longitude": "127.025307773", "title": "\ub9ac\uccb8\uce74\uc6b4\ud2f0"}, {"latitude": "37.5215014206", "price": 200000, "star": 5, "longitude": "126.918405341", "title": "\uba54\ub9ac\uc5b4\ud2b8 \uc774\uadf8\uc81c\ud050\ud2f0\ube0c \uc544\ud30c\ud2b8\uba3c\ud2b8 \uc11c\uc6b8"}, {"latitude": "37.5239535832", "price": 480000, "star": 3, "longitude": "127.054161814", "title": "\ud638\ud154\ub9ac\ubca0\ub77c \uc11c\uc6b8"}, {"latitude": "37.5090654471", "price": 240000, "star": 5, "longitude": "126.890036043", "title": "\uc250\ub77c\ud1a4 \uc11c\uc6b8 \ub514\ud050\ube0c\uc2dc\ud2f0 \ud638\ud154"}, {"latitude": "37.5824233787", "price": 500000, "star": 4, "longitude": "126.886673418", "title": "\uc2a4\ud0e0\ud3ec\ub4dc\ud638\ud154 \uc11c\uc6b8"}, {"latitude": "37.5075085778", "price": 460000, "star": 4, "longitude": "127.055194727", "title": "\ud638\ud154\ub354\ub514\uc790\uc774\ub108\uc2a4 \uc0bc\uc131"}, {"latitude": "37.5472854333", "price": 460000, "star": 1, "longitude": "126.819137845", "title": "\uba54\uc774\ud544\ub4dc \ud638\ud154"}, {"latitude": "37.5115238219", "price": 360000, "star": 4, "longitude": "127.099812754", "title": "\ub86f\ub370\ud638\ud154\uc6d4\ub4dc"}, {"latitude": "37.5274074406", "price": 340000, "star": 4, "longitude": "127.036649867", "title": "\ud504\ub9b0\uc138\uc2a4\ud638\ud154"}, {"latitude": "37.5088066162", "price": 200000, "star": 5, "longitude": "127.064328938", "title": "\ud30c\ud06c\ud558\uc58f\ud2b8\uc11c\uc6b8"}, {"latitude": "37.5524241968", "price": 520000, "star": 1, "longitude": "126.918298687", "title": "\ubcf4\ubcf4\ud638\ud154"}, {"latitude": "37.5064469636", "price": 240000, "star": 5, "longitude": "127.029793248", "title": "\ubca0\uc2a4\ud2b8\uc6e8\uc2a4\ud134 \uac15\ub0a8\ud638\ud154"}, {"latitude": "37.609524943", "price": 240000, "star": 4, "longitude": "126.975145623", "title": "\ub3d9\ud654\ud0b4\uc2a4\ud638\ud154"}, {"latitude": "37.5991713437", "price": 200000, "star": 5, "longitude": "126.936319821", "title": "\ubca0\ub2c8\ud0a4\uc544\uc528\uc5d0\uc2a4 \uc11c\uc6b8\ud638\ud154"}, {"latitude": "37.5210181113", "price": 480000, "star": 5, "longitude": "126.911884912", "title": "HSK"}, {"latitude": "37.5038736096", "price": 500000, "star": 3, "longitude": "126.916069378", "title": "\ud574\uad70\ud638\ud154"}, {"latitude": "37.5206850724", "price": 220000, "star": 3, "longitude": "127.02887385", "title": "\ud638\ud154\uc120\uc0e4\uc778"}, {"latitude": "37.5173179694", "price": 300000, "star": 2, "longitude": "127.021564501", "title": "\ub3c4\ubbf8\uc778 \ud504\ub9ac\ubbf8\uc5c4 \uc11c\uc6b8 \uac00\ub85c\uc218\uae38"}, {"latitude": "37.5543645534", "price": 220000, "star": 2, "longitude": "127.111136954", "title": "W\uc11c\uc6b8\uc6cc\ucee4\ud790\ud638\ud154"}, {"latitude": "37.5275556372", "price": 320000, "star": 4, "longitude": "126.917333754", "title": "\uae00\ub798\ub4dc\ud638\ud154"}, {"latitude": "37.556138771", "price": 540000, "star": 5, "longitude": "126.923485277", "title": "\ubbf8\ub780\ub2e4\ud22c\uc5b4"}, {"latitude": "37.5111717492", "price": 600000, "star": 4, "longitude": "127.058066934", "title": "\uc624\ud06c\uc6b0\ub4dc \ud504\ub9ac\ubbf8\uc5b4"}, {"latitude": "37.5035657524", "price": 380000, "star": 4, "longitude": "127.047802273", "title": "\uc11c\uc6b8\ub808\uc9c0\ub358\uc2a4"}, {"latitude": "37.5297035458", "price": 220000, "star": 1, "longitude": "126.919678679", "title": "\uc5e0\ud638\ud154"}, {"latitude": "37.5034177538", "price": 380000, "star": 5, "longitude": "127.042861632", "title": "\uc544\ub974\ub204\ubcf4\uc528\ud2f0"}, {"latitude": "37.5013570855", "price": 240000, "star": 1, "longitude": "127.035434745", "title": "\uba38\ud050\uc5b4 \uc11c\uc6b8 \uc570\ubc30\uc11c\ub354 \uac15\ub0a8 \uc3d8\ub3c4\ubca0"}, {"latitude": "37.6088621944", "price": 260000, "star": 3, "longitude": "126.956047757", "title": "\uc790\ud558\ubb38\ud638\ud154"}, {"latitude": "37.5301995491", "price": 500000, "star": 4, "longitude": "126.920712426", "title": "\ud638\ud154\ucf54\ubcf4\uc2a4"}, {"latitude": "37.5639933446", "price": 440000, "star": 1, "longitude": "126.913366274", "title": "\ub354\uc5e0\ud638\ud154"}, {"latitude": "37.548276652", "price": 500000, "star": 4, "longitude": "126.911127137", "title": "\uc900\ud76c\ube48\ud638\ud154"}, {"latitude": "37.640214266", "price": 340000, "star": 2, "longitude": "127.000400268", "title": "\ud638\ud154\uc544\uce74\ub370\ubbf8\ud558\uc6b0\uc2a4"}, {"latitude": "37.5381309799", "price": 200000, "star": 2, "longitude": "127.005213913", "title": "\ucf54\ucf54\ubcf4\ub178"}, {"latitude": "37.4962789731", "price": 220000, "star": 5, "longitude": "127.020549448", "title": "\uc11c\ucd08 \uc544\ub974\ub204\ubcf4\uc528\ud2f0"}, {"latitude": "37.4675425473", "price": 540000, "star": 1, "longitude": "126.898427062", "title": "\ub178\ubcf4\ud154 \uc570\ubc30\uc11c\ub354 \ub3c5\uc0b0"}, {"latitude": "37.5176953888", "price": 400000, "star": 3, "longitude": "126.90430872", "title": "\ucf54\ud2b8\uc57c\ub4dc \uba54\ub9ac\uc5b4\ud2b8 \uc11c\uc6b8 \ud0c0\uc784\uc2a4\ud018\uc5b4"}, {"latitude": "37.5935804465", "price": 580000, "star": 4, "longitude": "127.016967321", "title": "\uc2dc\ub124\ub9c8\ud638\ud154"}, {"latitude": "37.5794830685", "price": 520000, "star": 2, "longitude": "127.04492432", "title": "\ub274\ubd80\ub9bc\uad00\uad11\ud638\ud154"}, {"latitude": "37.500317985", "price": 440000, "star": 4, "longitude": "127.031772463", "title": "\uc824\ub9ac\ud638\ud154"}, {"latitude": "37.6095851115", "price": 260000, "star": 4, "longitude": "126.932083003", "title": "\ubca8\ub77c\uc9c0\uc624\uad00\uad11\ud638\ud154"}, {"latitude": "37.5703751742", "price": 240000, "star": 4, "longitude": "127.071144945", "title": "\uacbd\ub0a8\uad00\uad11\ud638\ud154"}, {"latitude": "37.5052082548", "price": 520000, "star": 5, "longitude": "127.057123821", "title": "\uc774\ube44\uc2a4 \uc570\ubc30\uc11c\ub354 \uc11c\uc6b8 \uac15\ub0a8"}, {"latitude": "37.5304680709", "price": 380000, "star": 2, "longitude": "126.920516222", "title": "\ud638\ud154\ubca4\ud5c8"}, {"latitude": "37.5144259256", "price": 560000, "star": 3, "longitude": "127.020516278", "title": "\ub809\uc2a4\uad00\uad11\ud638\ud154"}, {"latitude": "37.4941156211", "price": 420000, "star": 4, "longitude": "127.028097939", "title": "\ucf54\uc544\ud154\uc250\ub974\ube4c"}, {"latitude": "37.5083653859", "price": 560000, "star": 3, "longitude": "127.036306123", "title": "\uc138\uc6b8\uc2a4\ud0c0\uc988\ud638\ud154"}, {"latitude": "37.5434663169", "price": 460000, "star": 5, "longitude": "127.05703897", "title": "\ud638\ud154\uc544\ub760\uc131\uc218"}, {"latitude": "37.5797689947", "price": 520000, "star": 5, "longitude": "127.04462631", "title": "\ucf00\uc774\uc2dc\ud2f0\ud638\ud154"}, {"latitude": "37.5066028584", "price": 280000, "star": 3, "longitude": "127.032324803", "title": "\uce98\ub9ac\ud3ec\ub2c8\uc544\ud638\ud154"}, {"latitude": "37.5540345604", "price": 420000, "star": 1, "longitude": "126.917041817", "title": "\ub85c\uceec\uc2a4\ud2f0\uce58"}, {"latitude": "37.5515807245", "price": 360000, "star": 2, "longitude": "126.915730525", "title": "The shim"}, {"latitude": "37.4833162305", "price": 380000, "star": 2, "longitude": "126.89899859", "title": "\ubca0\uc2a4\ud2b8\uc6e8\uc2a4\ud134 \ud504\ub9ac\ubbf8\uc5b4 \uad6c\ub85c\ud638\ud154"}, {"latitude": "37.512779448", "price": 200000, "star": 2, "longitude": "127.025175482", "title": "\ud638\ud154\uc57c\uc790 \ubcf8\uc0ac"}, {"latitude": "37.5076067806", "price": 580000, "star": 2, "longitude": "127.055080384", "title": "\uc5e0\ube44\uc988\ud638\ud154"}, {"latitude": "37.6094944949", "price": 500000, "star": 1, "longitude": "126.930034281", "title": "\ub77c\ube44\ub2e4\ud638\ud154"}, {"latitude": "37.551017454", "price": 340000, "star": 4, "longitude": "127.044732609", "title": "\ub79c\ub4dc\ub9c8\ud06c\uc528\uc564\ub514"}, {"latitude": "37.4948756607", "price": 320000, "star": 1, "longitude": "127.018656563", "title": "\ud504\ub85c\ube44\uc2a4\ud0c0"}, {"latitude": "37.46615083", "price": 300000, "star": 3, "longitude": "127.032992662", "title": "\ub354\ucf00\uc774\ud638\ud154\uc564\ub9ac\uc870\ud2b8"}, {"latitude": "37.5112275869", "price": 360000, "star": 5, "longitude": "127.031507328", "title": "\ub274 \ud790\ud0d1 \uad00\uad11\ud638\ud154"}, {"latitude": "37.5213890464", "price": 400000, "star": 2, "longitude": "127.056852658", "title": "\ud2f0\ud30c\ub2c8\ud638\ud154"}, {"latitude": "37.5065220081", "price": 540000, "star": 5, "longitude": "127.030154217", "title": "\uac15\ub0a8\ub808\uc9c0\ub358\uc2a4"}, {"latitude": "37.5288131846", "price": 480000, "star": 5, "longitude": "127.03555699", "title": "\ub77c\ub9c8\ub2e4\uc815\uc120\ud638\ud154"}, {"latitude": "37.6088405809", "price": 440000, "star": 4, "longitude": "126.928469329", "title": "\uc2dc\uc548\ud638\ud154"}, {"latitude": "37.5660525642", "price": 300000, "star": 3, "longitude": "127.05440027", "title": "\uc0bc\ud638\ud30c\ud06c\ud638\ud154"}, {"latitude": "37.616909178", "price": 320000, "star": 1, "longitude": "126.923992732", "title": "\ud504\ub77c\uc784\uc778\uc11c\uc6b8\ud638\ud154"}, {"latitude": "37.5848713136", "price": 480000, "star": 5, "longitude": "127.050516795", "title": "\ud50c\ub77c\uc6cc\ud638\ud154"}, {"latitude": "37.5028344123", "price": 380000, "star": 5, "longitude": "127.039815363", "title": "\ub179\uc2a4\ud638\ud154"}, {"latitude": "37.5048011496", "price": 300000, "star": 3, "longitude": "127.041226621", "title": "\uc2e0\ub77c\uc2a4\ud14c\uc774 \uc5ed\uc0bc"}, {"latitude": "37.5347452387", "price": 440000, "star": 5, "longitude": "126.898719079", "title": "\ub85c\ud504\ud2b8 \uad00\uad11\ud638\ud154"}, {"latitude": "37.5624291563", "price": 540000, "star": 3, "longitude": "127.061033683", "title": "\uace8\ub4e0\uc2dc\ud2f0\ud638\ud154"}, {"latitude": "37.5067579384", "price": 340000, "star": 2, "longitude": "127.051471669", "title": "\uce98\ub9ac\ud3ec\ub2c8\uc544\ud638\ud154"}, {"latitude": "37.5492439015", "price": 240000, "star": 4, "longitude": "126.878690183", "title": "\ubca0\uc2a4\ud2b8\uc6e8\uc2a4\ud134 \ub098\uc774\uc544\uac00\ub77c\ud638\ud154"}, {"latitude": "37.5009537993", "price": 580000, "star": 4, "longitude": "127.039025111", "title": "\ube14\ub8e8\ubc0d\ud558\uc6b0\uc2a4"}, {"latitude": "37.5691753383", "price": 200000, "star": 4, "longitude": "127.050545991", "title": "\uc2dc\ud2f0\ud314\ub808\uc2a4 \uad00\uad11\ud638\ud154"}, {"latitude": "37.5067824612", "price": 260000, "star": 2, "longitude": "127.039991082", "title": "\ud638\ud154\uc544\uadf8\ub9ac\ub098"}, {"latitude": "37.5014596022", "price": 400000, "star": 3, "longitude": "127.035851891", "title": "\ub178\ube14\ub808\uc2a4\ud638\ud154"}, {"latitude": "37.5749483944", "price": 480000, "star": 3, "longitude": "127.045740657", "title": "\ud638\ud154\uac24\ub7ec\ub9ac\uc544"}, {"latitude": "37.5613744963", "price": 460000, "star": 5, "longitude": "126.814331704", "title": "\uc5d0\uc5b4\ud3ec\ud2b8\ud638\ud154"}, {"latitude": "37.5283287479", "price": 320000, "star": 3, "longitude": "126.920094464", "title": "\uc81c\uc774\ucf00\uc774\ub77c\uc774\ud504\ud30c\ud2b8\ub108\uc2a4"}, {"latitude": "37.5237864059", "price": 380000, "star": 3, "longitude": "127.055793022", "title": "\uc54c\ub85c\ud504\ud2b8 \uc11c\uc6b8\uac15\ub0a8"}, {"latitude": "37.5636458252", "price": 220000, "star": 1, "longitude": "127.057667945", "title": "\ud638\ud154 \ub9c8\ub808"}, {"latitude": "37.6095569437", "price": 460000, "star": 4, "longitude": "126.929965431", "title": "<b>Hotel</b> M&amp;A"}, {"latitude": "37.5707193173", "price": 260000, "star": 3, "longitude": "127.071367084", "title": "\ube14\ub799\uc2a4\ud1a4 \ud638\ud154"}, {"latitude": "37.5661621922", "price": 320000, "star": 1, "longitude": "127.067065525", "title": "\ubcf4\ub974\uc870\ubbf8\ud638\ud154"}, {"latitude": "37.5479686818", "price": 500000, "star": 4, "longitude": "126.878188696", "title": "\uace8\ub4e0\uc11c\uc6b8\ud638\ud154"}, {"latitude": "37.5025556743", "price": 480000, "star": 2, "longitude": "127.03877841", "title": "H Avenue \ud638\ud154 \uc5ed\uc0bc\uc810"}, {"latitude": "37.4279660636", "price": 480000, "star": 2, "longitude": "126.992220416", "title": "\uadf8\ub808\uc774\uc2a4\ud638\ud154"}, {"latitude": "37.4868908593", "price": 560000, "star": 2, "longitude": "127.021746082", "title": "\ud504\ub79c\ub4dc\ud638\ud154"}, {"latitude": "37.4865662306", "price": 520000, "star": 4, "longitude": "127.014117717", "title": "\ud638\ud154 \uc13c\ud2b8\ub85c"}, {"latitude": "37.5618059206", "price": 500000, "star": 1, "longitude": "127.067674398", "title": "\ud638\ud154 \ub178\ube14\ub808\uc2a4"}, {"latitude": "37.5141205844", "price": 480000, "star": 5, "longitude": "127.035994684", "title": "\uc784\ud53c\ub9ac\uc5bc\ud330\ub9ac\uc2a4\uc11c\uc6b8"}, {"latitude": "37.5263990508", "price": 320000, "star": 3, "longitude": "126.909136878", "title": "\uac24\ub7ed\uc2dc\ud638\ud154"}, {"latitude": "37.4142370751", "price": 480000, "star": 4, "longitude": "126.655272468", "title": "\ub77c\ub9c8\ub2e4\uc1a1\ub3c4\ud638\ud154"}, {"latitude": "37.5896526162", "price": 480000, "star": 4, "longitude": "127.056865053", "title": "\ud638\ud154\ucf00\uc774\ud53c"}, {"latitude": "37.5506259665", "price": 420000, "star": 5, "longitude": "127.069081007", "title": "\ud638\ud154\uceec\ub9ac\ub10c \uac74\ub300"}, {"latitude": "37.5187107063", "price": 500000, "star": 1, "longitude": "126.939576974", "title": "\uc5d0\uc774\ud2f0 \ud638\ud154 \ub9e4\ub2c8\uc9c0\uba3c\ud2b8"}, {"latitude": "37.5181752562", "price": 380000, "star": 2, "longitude": "126.910410306", "title": "SB\ud638\ud154"}, {"latitude": "37.5875832371", "price": 480000, "star": 1, "longitude": "127.052735642", "title": "\ud50c\ub77c\uc6cc\ud638\ud154"}, {"latitude": "37.5049916783", "price": 200000, "star": 5, "longitude": "127.088116957", "title": "\uc7a0\uc2e4 \uad00\uad11\ud638\ud154"}, {"latitude": "37.5388993145", "price": 440000, "star": 1, "longitude": "127.070867348", "title": "\ub354\ud074\ub798\uc2dd500\uc774\uadf8\uc81c\ud050\ud2f0\ube0c\ub808\uc9c0\ub358\uc2a4\ud39c\ud0c0\uc988\ud638\ud154"}, {"latitude": "37.616909178", "price": 520000, "star": 4, "longitude": "126.923992732", "title": "\ud504\ub77c\uc784\uc778\uc11c\uc6b8\ud638\ud154"}, {"latitude": "37.5030728357", "price": 200000, "star": 4, "longitude": "127.023808598", "title": "\uc624\ud074\ub77c\uc6b0\ub4dc \ud638\ud154"}, {"latitude": "37.5257182032", "price": 440000, "star": 1, "longitude": "127.053981179", "title": "\ube14\ub8e8\ud384\ud638\ud154"}, {"latitude": "37.5177865588", "price": 560000, "star": 3, "longitude": "126.911253051", "title": "\ucd08\ucf5c\ub9bf\ud638\ud154"}, {"latitude": "37.6552956954", "price": 600000, "star": 4, "longitude": "127.059425178", "title": "\ub178\ube14\ub808\uc2a4\uad00\uad11\ud638\ud154"}, {"latitude": "37.4721048611", "price": 600000, "star": 1, "longitude": "126.619598997", "title": "\ud558\ubc84\ud30c\ud06c\ud638\ud154"}, {"latitude": "37.5825049006", "price": 340000, "star": 5, "longitude": "127.048689987", "title": "31page"}, {"latitude": "37.5130229197", "price": 240000, "star": 2, "longitude": "127.026292163", "title": "\uadf8\ub9b0\uad00\uad11\ud638\ud154"}, {"latitude": "37.4917082886", "price": 240000, "star": 4, "longitude": "127.029011139", "title": "\uc5b4\ubc18 \ud50c\ub808\uc774\uc2a4"}, {"latitude": "37.4991022027", "price": 280000, "star": 4, "longitude": "127.028553637", "title": "\uc81c\ub9ac\uc2a4\ud50c\ub798\ub2db\ud638\ud154"}, {"latitude": "37.4864826944", "price": 360000, "star": 3, "longitude": "127.013824818", "title": "\uc18c\uc124 \ud638\ud154"}, {"latitude": "37.2770262935", "price": 440000, "star": 5, "longitude": "127.038785389", "title": "\ud638\ud154\uce90\uc2ac"}, {"latitude": "37.6100241151", "price": 560000, "star": 3, "longitude": "126.918927096", "title": "\uc5f0\uc2e0\ub0b4 \ud074\ub798\uc2dd"}, {"latitude": "37.6374443511", "price": 440000, "star": 1, "longitude": "127.025840025", "title": "\ub514\uc790\uc778\ud638\ud154 \ub2e4\ub2c8\uc5d8 \uce84\ud30c\ub12c\ub77c"}, {"latitude": "37.6037696466", "price": 520000, "star": 4, "longitude": "127.062236508", "title": "\ud638\ud154 \uc720\ub2c8\ud06c"}, {"latitude": "37.4935214516", "price": 580000, "star": 5, "longitude": "127.028162171", "title": "\uac15\ub0a8 \uc544\ub974\ub204\ubcf4\uc528\ud2f0"}, {"latitude": "37.5614726121", "price": 560000, "star": 3, "longitude": "127.060853249", "title": "\uc81c\uc774\uc81c\uc774\ud638\ud154"}, {"latitude": "37.5184913088", "price": 260000, "star": 4, "longitude": "126.910484902", "title": "\uc624\uc2a4\uce74\ud638\ud154"}, {"latitude": "37.5017699452", "price": 600000, "star": 5, "longitude": "127.041887369", "title": "\uc0ac\uc6d4\ud638\ud154"}, {"latitude": "37.5029677479", "price": 340000, "star": 1, "longitude": "127.04851108", "title": "\ucf54\uc9c0\ud648"}, {"latitude": "37.5158164902", "price": 360000, "star": 4, "longitude": "127.016527632", "title": "\ud558\uc774\uc6e8\uc774\ud638\ud154"}, {"latitude": "37.5124651708", "price": 580000, "star": 5, "longitude": "127.049668894", "title": "\ud638\ud154\uc790\uc774\uc5b8\ud2b8"}, {"latitude": "37.5067110267", "price": 220000, "star": 5, "longitude": "127.040071169", "title": "\ud638\ud154\ud30c\uace0\ub2e4"}, {"latitude": "37.4853607058", "price": 260000, "star": 4, "longitude": "126.896967241", "title": "\ub86f\ub370\uc2dc\ud2f0\ud638\ud154\uad6c\ub85c"}, {"latitude": "37.5029845461", "price": 300000, "star": 2, "longitude": "127.039440212", "title": "\ud2b8\ub9ac\uc544\ud638\ud154"}, {"latitude": "37.5059352724", "price": 580000, "star": 4, "longitude": "127.050011699", "title": "\uadf8\ub9b0\uadf8\ub798\uc2a4\ud638\ud154"}, {"latitude": "37.5056276775", "price": 480000, "star": 5, "longitude": "126.749613877", "title": "\uace0\ub824\ud638\ud154"}, {"latitude": "37.534179172", "price": 300000, "star": 5, "longitude": "127.091926067", "title": "\ub3d9\uc11c\uc6b8 \uad00\uad11\ud638\ud154"}, {"latitude": "37.4408899157", "price": 500000, "star": 1, "longitude": "126.457427586", "title": "\uadf8\ub79c\ub4dc \ud558\uc58f\ud2b8 \uc778\ucc9c"}, {"latitude": "37.4743468769", "price": 280000, "star": 3, "longitude": "126.981028008", "title": "\ub354\ube14\uc720\ud638\ud154"}, {"latitude": "37.5111732919", "price": 420000, "star": 3, "longitude": "127.081175904", "title": "\ud30c\ub85c\uc2a4\ud638\ud154"}, {"latitude": "37.4772252431", "price": 320000, "star": 5, "longitude": "126.980446286", "title": "\uce74\ub77c\uc26c\uad00\uad11\ud638\ud154"}, {"latitude": "37.5172712055", "price": 380000, "star": 1, "longitude": "126.912041062", "title": "\uc54c\ud638\ud154"}, {"latitude": "37.5638946261", "price": 580000, "star": 4, "longitude": "126.802440792", "title": "\ub86f\ub370\uc2dc\ud2f0\ud638\ud154\uae40\ud3ec\uacf5\ud56d"}, {"latitude": "37.5486449003", "price": 240000, "star": 3, "longitude": "126.878235157", "title": "\ub9ac\ubc84\ud30c\ud06c\ud638\ud154"}, {"latitude": "37.6351213321", "price": 320000, "star": 4, "longitude": "127.026040262", "title": "\uc3e0\ub77c\ub9ac\uc6c0\uc2dc\ud2f0 \ud638\ud154"}, {"latitude": "37.4853300862", "price": 300000, "star": 5, "longitude": "127.012833593", "title": "\uc720\uc6d0\ud638\ud154\uc6b4\uc601"}, {"latitude": "37.517526069", "price": 220000, "star": 1, "longitude": "126.907433336", "title": "\uc601\ud654\ud638\ud154"}, {"latitude": "37.5401133977", "price": 260000, "star": 2, "longitude": "127.126118167", "title": "\ud638\ud1548\uc6d4"}, {"latitude": "37.3903374737", "price": 380000, "star": 5, "longitude": "126.645434045", "title": "\uc250\ub77c\ud1a4 \uc778\ucc9c \ud638\ud154"}, {"latitude": "37.5181161612", "price": 560000, "star": 5, "longitude": "126.907911167", "title": "\ud638\ud154\uac24\ub7ed\uc2dc\ud22c\uc5b4"}, {"latitude": "37.5067421646", "price": 420000, "star": 3, "longitude": "127.032831985", "title": "\ud638\ud154\ub9ac\uce58\ubaac\ub4dc"}, {"latitude": "37.5159536168", "price": 340000, "star": 5, "longitude": "126.721818632", "title": "\ubd80\ud3c9 \uad00\uad11\ud638\ud154"}, {"latitude": "37.5541293106", "price": 240000, "star": 3, "longitude": "126.851658544", "title": "\ub274 \ub9ac\uc820\ud2b8 \ud638\ud154"}, {"latitude": "37.561487754", "price": 200000, "star": 2, "longitude": "127.060490854", "title": "\uc5d8\ud638\ud154"}, {"latitude": "37.5175542755", "price": 200000, "star": 4, "longitude": "127.009898523", "title": "\uc774\ub780\ud14c\ud5e4\ub780\ud638\ud154"}, {"latitude": "37.5058241902", "price": 300000, "star": 4, "longitude": "127.027471342", "title": "\ud638\ud154 \ub2e4\uc774\ub0b4\uc2a4\ud2f0"}, {"latitude": "37.4865662212", "price": 200000, "star": 4, "longitude": "127.032673406", "title": "\ud638\ud154\ud398\uc774\ud1a0"}, {"latitude": "37.4655897474", "price": 220000, "star": 4, "longitude": "126.709721236", "title": "\ubca0\uc2a4\ud2b8\uc6e8\uc2a4\ud134 \uc778\ucc9c\ub85c\uc584\ud638\ud154"}, {"latitude": "37.2777136532", "price": 200000, "star": 3, "longitude": "127.032450693", "title": "\ub77c\ub9c8\ub2e4 \ud504\ub77c\uc790 \uc218\uc6d0 \ud638\ud154"}, {"latitude": "37.5012782614", "price": 440000, "star": 3, "longitude": "127.042368654", "title": "\uc528\uc5d0\ud504\ud638\ud154"}, {"latitude": "37.5026549542", "price": 440000, "star": 1, "longitude": "127.039908138", "title": "\ud638\ud154\uadf8\ub77c\ubaa8\uc2a4"}, {"latitude": "37.5549143034", "price": 200000, "star": 3, "longitude": "126.852699059", "title": "\ud638\ud154 \ub178\uc2a4\ud0c8\uc790"}, {"latitude": "37.654913305", "price": 260000, "star": 1, "longitude": "127.057798033", "title": "\ub9ac\uce20\ud638\ud154"}, {"latitude": "37.5287824274", "price": 300000, "star": 5, "longitude": "126.898942411", "title": "EV\uccb4\uc778"}, {"latitude": "37.5376904838", "price": 580000, "star": 2, "longitude": "127.077592304", "title": "\ud638\ud154\ud2f0\ud30c\ub2c8"}, {"latitude": "37.5358364184", "price": 580000, "star": 2, "longitude": "126.901724123", "title": "\ub514\uc5d0\uc2a4\ube44\uc528"}, {"latitude": "37.6341149924", "price": 440000, "star": 2, "longitude": "127.02310761", "title": "\ub77c\uc774\ud504\ud638\ud154"}, {"latitude": "37.637316725", "price": 400000, "star": 2, "longitude": "127.025660403", "title": "\ud638\ud154\ub7ec\uc26c"}, {"latitude": "37.5691147558", "price": 380000, "star": 2, "longitude": "127.068987123", "title": "\ub3d9\uacbd\ud638\ud154"}, {"latitude": "37.4996367102", "price": 320000, "star": 2, "longitude": "127.035513392", "title": "\ud638\ud154\uc2a4\ud0c0"}, {"latitude": "37.4361093831", "price": 520000, "star": 3, "longitude": "127.13920332", "title": "\ud638\ud154\ubc14\uc778"}, {"latitude": "37.5062569862", "price": 580000, "star": 1, "longitude": "127.034105014", "title": "\ubca0\ub124\uce58\uc544\uad00\uad11\ud638\ud154"}, {"latitude": "37.3378336275", "price": 340000, "star": 4, "longitude": "126.750321559", "title": "\uc2dc\ud765\uad00\uad11\ud638\ud154"}, {"latitude": "37.4851791379", "price": 540000, "star": 5, "longitude": "127.012021449", "title": "\ud638\ud154\uc2a4\ud0c0 \uc11c\ucd08"}, {"latitude": "37.6183461293", "price": 260000, "star": 5, "longitude": "127.076813487", "title": "\ud638\ud154\uc2dc\ub124\ub9c8"}, {"latitude": "37.5172234535", "price": 580000, "star": 5, "longitude": "126.911747641", "title": "\ub77c\uc774\ud504\uc2a4\ud0c0\uc77c L\ud638\ud154"}, {"latitude": "37.5238539188", "price": 480000, "star": 4, "longitude": "126.88263346", "title": "\ub9c8\ub8e8 \ud638\ud154"}, {"latitude": "37.190256741", "price": 580000, "star": 2, "longitude": "126.838984485", "title": "\ub864\ub9c1\ud790\uc2a4\ud638\ud154"}, {"latitude": "37.5303179804", "price": 300000, "star": 2, "longitude": "126.921842127", "title": "\ucf04\uc2f1\ud134\ud638\ud154"}, {"latitude": "37.4853722893", "price": 460000, "star": 1, "longitude": "127.014653524", "title": "\uce98\ub9ac\ud3ec\ub2c8\uc544\ud638\ud154"}, {"latitude": "37.498767317", "price": 520000, "star": 5, "longitude": "127.025085986", "title": "M\uc250\ub974\ube4c"}, {"latitude": "37.5068744587", "price": 440000, "star": 1, "longitude": "127.101010879", "title": "\ub808\uc774\ud06c \uad00\uad11\ud638\ud154"}, {"latitude": "37.5569851408", "price": 200000, "star": 1, "longitude": "126.859990109", "title": "\ubca0\ub2c8\ud0a4\uc544 \uc11c\uc6b8\ud638\ud154"}, {"latitude": "37.3985645728", "price": 560000, "star": 1, "longitude": "126.976496788", "title": "\uc5b4\ubc18 \ubd80\ub760\ud06c \ud638\ud154"}, {"latitude": "37.5206538636", "price": 340000, "star": 3, "longitude": "126.903665945", "title": "\ud504\ub9ac\ud638\ud154"}, {"latitude": "37.5074910101", "price": 400000, "star": 4, "longitude": "127.055251502", "title": "\ud638\ud154\ub354\ub514\uc790\uc774\ub108\uc2a4"}, {"latitude": "37.3981317974", "price": 380000, "star": 4, "longitude": "126.922640735", "title": "\uc0bc\uc6d0\ud504\ub77c\uc790\ud638\ud154"}, {"latitude": "37.6340491162", "price": 300000, "star": 5, "longitude": "127.022768576", "title": "\ud638\ud154\uc7c8\uc2a4\ubbfc"}, {"latitude": "37.476209138", "price": 520000, "star": 3, "longitude": "127.046622664", "title": "\ud638\ud154\ub370\ub2d8"}, {"latitude": "37.5014204013", "price": 500000, "star": 4, "longitude": "127.042118026", "title": "\ud638\ud154\uceec\ub9ac\ub10c"}, {"latitude": "37.5049492254", "price": 220000, "star": 3, "longitude": "127.052897003", "title": "Jbis <b>Hotel</b>"}, {"latitude": "37.5064017228", "price": 300000, "star": 5, "longitude": "127.051996456", "title": "\ube44\uc9c0\ub2c8\uc2a4\ud638\ud154 \ucf00\uc774\ud504\ud0c0\uc6b4"}, {"latitude": "37.5225714891", "price": 420000, "star": 3, "longitude": "127.116638505", "title": "\uc11c\uc6b8\uc62c\ub9bc\ud53d\ud30c\ud06c\ud154"}, {"latitude": "37.4850364328", "price": 340000, "star": 1, "longitude": "126.931334635", "title": "\ub098\uc774\uc2a4 \ud0c0\uc784\ud638\ud154"}, {"latitude": "37.2593856329", "price": 260000, "star": 3, "longitude": "127.031365847", "title": "\uc774\ube44\uc2a4 \uc570\ubc30\uc11c\ub354 \uc218\uc6d0"}, {"latitude": "37.5051766763", "price": 560000, "star": 1, "longitude": "127.054296622", "title": "\uba54\uc774\uc800\ud638\ud154"}, {"latitude": "37.5701792747", "price": 440000, "star": 2, "longitude": "127.0714417", "title": "\uc774\uc9c0\ud638\ud154"}, {"latitude": "37.5612187826", "price": 320000, "star": 3, "longitude": "126.839495497", "title": "SR\ud638\ud154\uc11c\uc6b8"}, {"latitude": "37.5280413516", "price": 440000, "star": 3, "longitude": "127.048170514", "title": "\ub9c8\uce74\uc624 \ud638\ud154\ud504\ub9ac\ub2f7\ucef4"}, {"latitude": "37.3895661352", "price": 320000, "star": 4, "longitude": "126.932971927", "title": "\uc774\ub8e8\ub2e4\ud638\ud154"}, {"latitude": "37.5061093092", "price": 540000, "star": 5, "longitude": "127.097559009", "title": "\ub85c\uc0ac\ub098\ubd80\ub760\ub044\ud638\ud154"}, {"latitude": "37.5027991999", "price": 380000, "star": 4, "longitude": "127.039917603", "title": "<b>HOTEL</b> MANHATTAN"}, {"latitude": "37.5514218091", "price": 280000, "star": 5, "longitude": "126.863322788", "title": "\ud638\ud154\uadf8\ub9b0\uc6d4\ub4dc"}, {"latitude": "37.5068952195", "price": 480000, "star": 2, "longitude": "127.052861144", "title": "\uc2dc\ub124\ub9c8\ud638\ud154"}, {"latitude": "37.465338655", "price": 440000, "star": 4, "longitude": "126.896888071", "title": "\ud638\ud154\ubc1c\ub80c\ud0c0\uc778"}, {"latitude": "37.4801985682", "price": 580000, "star": 3, "longitude": "126.950545379", "title": "\ud638\ud154k"}, {"latitude": "37.3677842693", "price": 280000, "star": 1, "longitude": "126.944693888", "title": "\uc2a4\ub9c8\ud2b8\ud638\ud154"}, {"latitude": "37.4868636949", "price": 440000, "star": 2, "longitude": "127.0130509", "title": "\uc544\uc774\uc5e0\ud2f0\ud638\ud154"}, {"latitude": "37.2724359095", "price": 480000, "star": 2, "longitude": "127.150380894", "title": "\ub9ac\ub514\uc790\uc778\ud638\ud154"}, {"latitude": "37.4743189113", "price": 480000, "star": 3, "longitude": "126.86887672", "title": "\uad11\uba85\uad00\uad11\ud638\ud154"}, {"latitude": "37.5077910792", "price": 340000, "star": 3, "longitude": "127.03992163", "title": "\uc2dc\ud2f0\uc544\uc77c\ub79c\ub4dc"}, {"latitude": "37.5013478049", "price": 380000, "star": 5, "longitude": "127.040942733", "title": "\uc544\uc774\ud50c\ub7ec\uc2a4\ud638\ud154"}, {"latitude": "37.5093637728", "price": 440000, "star": 4, "longitude": "127.056200681", "title": "\uc5d0\uc774\uce58\uc528\uc5d0\uc2a4\ucee8\uc124\ud305"}, {"latitude": "37.9660174486", "price": 440000, "star": 1, "longitude": "127.195578363", "title": "\uc544\ub3c4\ub2c8\uc2a4\ud638\ud154"}, {"latitude": "37.5067884126", "price": 580000, "star": 5, "longitude": "127.051901088", "title": "\ud0c0\ub77c\ud638\ud154"}, {"latitude": "37.4974723508", "price": 400000, "star": 4, "longitude": "126.846136099", "title": "\ubca0\ub974\ub204\uc774\ud638\ud154"}, {"latitude": "37.5546246974", "price": 580000, "star": 5, "longitude": "126.852567682", "title": "\uce7c\ud2bc\uad00\uad11\ud638\ud154"}, {"latitude": "37.5064878304", "price": 580000, "star": 2, "longitude": "127.051497703", "title": "<b>Hotel</b> SM"}, {"latitude": "37.6548744649", "price": 420000, "star": 5, "longitude": "127.057447198", "title": "\ub274\ubaac\ub4dc\ud638\ud154"}, {"latitude": "37.5480822912", "price": 520000, "star": 4, "longitude": "127.109683661", "title": "\ud55c\uac15\uad00\uad11\ud638\ud154"}, {"latitude": "37.3860785082", "price": 360000, "star": 4, "longitude": "127.121593729", "title": "\uba54\uc774\ud2b8\ud638\ud154"}, {"latitude": "37.5016545601", "price": 220000, "star": 3, "longitude": "127.042103729", "title": "<b>Hotel</b> MARIE"}, {"latitude": "37.5101329566", "price": 460000, "star": 3, "longitude": "127.080645702", "title": "\ud50c\ub809\uc2a4\ud638\ud154"}, {"latitude": "37.6619878268", "price": 260000, "star": 5, "longitude": "126.751033381", "title": "\uc5e0\ube14\ud638\ud154 \ud0a8\ud14d\uc2a4"}, {"latitude": "37.4694318324", "price": 220000, "star": 4, "longitude": "126.894250492", "title": "\uc720\ub85c\uc2a4\ud0c0"}, {"latitude": "37.5300390392", "price": 340000, "star": 2, "longitude": "126.840928576", "title": "\uba54\uc774\ud2b8\uad00\uad11\ud638\ud154"}, {"latitude": "37.5532995939", "price": 520000, "star": 2, "longitude": "126.850652689", "title": "\uc774\uc9c0\ud638\ud154"}, {"latitude": "37.6447684645", "price": 380000, "star": 2, "longitude": "126.787241513", "title": "\ubc1c\ub80c\ud0c0\uc778\ud638\ud154"}, {"latitude": "37.3975224768", "price": 540000, "star": 1, "longitude": "127.110764755", "title": "\ucf54\ud2b8\uc57c\ub4dc \ubc14\uc774 \uba54\ub9ac\uc5b4\ud2b8 \uc11c\uc6b8\ud310\uad50"}, {"latitude": "37.5290570288", "price": 200000, "star": 2, "longitude": "126.847392615", "title": "\ud638\ud154\ub4dc\uc5b4\ubc18"}, {"latitude": "37.5961115427", "price": 500000, "star": 2, "longitude": "127.088831005", "title": "\ub354\ud640\ub9ad\ud638\ud154"}, {"latitude": "37.4939158504", "price": 220000, "star": 5, "longitude": "127.118796302", "title": "\uac00\ub77d\ud638\ud154"}, {"latitude": "37.5112902976", "price": 520000, "star": 4, "longitude": "127.083481983", "title": "MW\ud638\ud154"}, {"latitude": "37.4856230796", "price": 220000, "star": 1, "longitude": "126.930444318", "title": "\uc2e0\ub9bc \uc9dd"}, {"latitude": "37.384629688", "price": 440000, "star": 5, "longitude": "126.638784132", "title": "\ubca0\ub2c8\ud0a4\uc544\ud504\ub9ac\ubbf8\uc5b4 \uc1a1\ub3c4\ube0c\ub9bf\uc9c0\ud638\ud154"}, {"latitude": "37.526407071", "price": 400000, "star": 2, "longitude": "126.722794423", "title": "\ud638\ud154 \uce74\ub9ac\uc2a4"}, {"latitude": "37.5965941124", "price": 520000, "star": 3, "longitude": "127.089481935", "title": "\ubbf8\ub77c\uc9c0\ud638\ud154"}, {"latitude": "37.7768285791", "price": 420000, "star": 4, "longitude": "126.688694005", "title": "\ud638\ud154 W1"}, {"latitude": "37.4958659362", "price": 480000, "star": 3, "longitude": "126.844950748", "title": "\ucf54\uc5c5\uc2dc\ud2f0\ud638\ud154\uc2a4\ud14c\uc774\ucf54"}, {"latitude": "37.3172159297", "price": 280000, "star": 2, "longitude": "126.835051177", "title": "\ud638\ud154\ud558\uc774\ube44\uc2a4"}, {"latitude": "37.5176401807", "price": 520000, "star": 2, "longitude": "126.904185093", "title": "CourtyardbyMarriottHotel \ud0c0\uc784\uc2a4\ud018\uc5b4\uc810"}, {"latitude": "37.6549980042", "price": 520000, "star": 1, "longitude": "127.058250287", "title": "\uc138\ud53c\uc544\ud638\ud154"}, {"latitude": "37.3865073359", "price": 260000, "star": 4, "longitude": "127.12231146", "title": "\ub178\ube14\ub808\uc2a4\ud638\ud154"}, {"latitude": "37.6315604451", "price": 600000, "star": 5, "longitude": "126.832943029", "title": "\ub78c\uc138\uc2a4\ud638\ud154"}, {"latitude": "37.4769682746", "price": 200000, "star": 3, "longitude": "126.891754032", "title": "\uc774\ub79c\ub4dc\ud30c\ud06c"}, {"latitude": "37.6538821323", "price": 260000, "star": 4, "longitude": "127.051668608", "title": "\ub9ac\uc820\ud2b8\ud638\ud154"}, {"latitude": "37.4941528846", "price": 500000, "star": 2, "longitude": "127.119166711", "title": "\uce98\ub9ac\ud3ec\ub2c8\uc544\uad00\uad11\ud638\ud154"}, {"latitude": "37.4742178846", "price": 240000, "star": 1, "longitude": "126.870562767", "title": "\ub2e4\uc774\uc544\ub098\ud638\ud154"}, {"latitude": "37.5161890049", "price": 260000, "star": 5, "longitude": "127.113829043", "title": "\uc62c\ub9ac\ube0c\ud638\ud154"}, {"latitude": "37.5171714312", "price": 200000, "star": 1, "longitude": "126.910990487", "title": "\ub77c\uc774\ud504\uc2a4\ud0c0\uc77cE\ud638\ud154"}, {"latitude": "37.4802710921", "price": 380000, "star": 2, "longitude": "127.008038226", "title": "\uc624\uc158\uadf8\ub79c\ub4dc\ud638\ud154"}, {"latitude": "37.5007520406", "price": 540000, "star": 2, "longitude": "127.087512477", "title": "\ucf54\ub9ac\uc544\ud638\ud154"}, {"latitude": "37.5192492978", "price": 280000, "star": 1, "longitude": "127.042863359", "title": "\uc2a4\ucfe8\ub3c5"}, {"latitude": "37.4949246064", "price": 260000, "star": 2, "longitude": "127.036670863", "title": "\uc544\ub2f4\uc2a4\ud638\ud154"}, {"latitude": "37.56828917", "price": 400000, "star": 1, "longitude": "127.069416222", "title": "\ud638\ud154\ube44\ube0c\ud074\ub798\uc2dd"}, {"latitude": "37.503475929", "price": 560000, "star": 1, "longitude": "127.047837343", "title": "\ud76c\ud6c8 \uc5ed\uc0bc\uc9c0\uc810"}, {"latitude": "37.5056207481", "price": 220000, "star": 1, "longitude": "127.439948306", "title": "\ub354\ud790\ud558\uc6b0\uc2a4"}, {"latitude": "37.4960988902", "price": 340000, "star": 4, "longitude": "126.845738781", "title": "\uac24\ub7ec\ub9ac\uc544\ud638\ud154"}, {"latitude": "37.6380409687", "price": 280000, "star": 1, "longitude": "126.834076784", "title": "\uce74\ub974\ub9c8\ud638\ud154"}, {"latitude": "37.4653144722", "price": 580000, "star": 1, "longitude": "126.89719364", "title": "\uc708\uc800\ud638\ud154"}, {"latitude": "37.5291315856", "price": 200000, "star": 4, "longitude": "127.134980556", "title": "\ubc1c\ub9ac\uad00\uad11\ud638\ud154"}, {"latitude": "37.5702834085", "price": 540000, "star": 3, "longitude": "127.069787655", "title": "\ub7ed\uc154\ub9ac\ud638\ud154"}, {"latitude": "37.5484418504", "price": 540000, "star": 1, "longitude": "126.819447806", "title": "\ud638\ud154 \ub514\uc544\ub9dd"}, {"latitude": "37.4812374048", "price": 460000, "star": 3, "longitude": "126.895410936", "title": "\ucf54\ub9ac\uc544\ud638\ud154\ub2f7\ucef4"}, {"latitude": "37.513763832", "price": 220000, "star": 5, "longitude": "126.880894706", "title": "CCV Serviced Resitel"}, {"latitude": "37.7111970613", "price": 480000, "star": 4, "longitude": "127.445497241", "title": "\uae4c\uc0ac32"}, {"latitude": "37.5112720259", "price": 240000, "star": 3, "longitude": "127.084613339", "title": "\ub85c\uc988\ub9c8\ub9ac\ud638\ud154"}, {"latitude": "37.6443240155", "price": 220000, "star": 5, "longitude": "126.78695412", "title": "\uc559\ub760\ube0c\ud638\ud154"}, {"latitude": "37.7851086136", "price": 600000, "star": 3, "longitude": "126.682224483", "title": "\uc18c\ud48d\ud638\ud154"}, {"latitude": "37.5532534589", "price": 360000, "star": 1, "longitude": "126.851468254", "title": "\ub4dc\ub9bc\ud638\ud154"}, {"latitude": "37.6466829677", "price": 440000, "star": 4, "longitude": "127.125258333", "title": "\ub514\uc790\uc778\ud638\ud154\ub354\uba54\uc774"}, {"latitude": "37.4857391012", "price": 400000, "star": 3, "longitude": "127.0132579", "title": "\uc9ec\ud638\ud154"}, {"latitude": "37.6149991301", "price": 560000, "star": 4, "longitude": "126.833801945", "title": "\uccb4\uc2a4\ud638\ud154"}, {"latitude": "37.3854172595", "price": 220000, "star": 5, "longitude": "127.12112715", "title": "\ud638\ud154\uac24\ub7ec\ub9ac"}, {"latitude": "37.6630145239", "price": 420000, "star": 4, "longitude": "126.7672805", "title": "\ubd80\ud2f0\ud06c\ud638\ud154k \uc77c\uc0b0\uc810"}, {"latitude": "37.4599294717", "price": 460000, "star": 4, "longitude": "126.875524879", "title": "\ud638\ud154\ub178\ube14\ub808\uc2a4"}, {"latitude": "37.4851002953", "price": 380000, "star": 4, "longitude": "126.786635869", "title": "\ud30c\ube44\uc544\uad00\uad11\ud638\ud154"}, {"latitude": "37.7415350004", "price": 360000, "star": 1, "longitude": "127.047308007", "title": "\ud5e4\ub4dc\uc6d0\ud638\ud154"}, {"latitude": "37.5382914905", "price": 560000, "star": 5, "longitude": "127.138156402", "title": "\ud558\ubaa8\ub2c8\ud638\ud154"}, {"latitude": "37.7370577182", "price": 560000, "star": 2, "longitude": "127.045175608", "title": "\ub098\uc774\uc2a4\ud638\ud154"}, {"latitude": "37.4987309059", "price": 580000, "star": 5, "longitude": "127.025041221", "title": "\uc5e0\uc528 \ucf54\ub9ac\uc544"}, {"latitude": "37.4945943822", "price": 360000, "star": 3, "longitude": "126.489163322", "title": "\uc778\ucc9c\uacf5\ud56d\ud638\ud154"}, {"latitude": "37.5302921246", "price": 540000, "star": 5, "longitude": "126.844692218", "title": "\uc5d0\uc2a4\ud638\ud154"}, {"latitude": "37.5342397211", "price": 540000, "star": 3, "longitude": "127.133631762", "title": "\ucf54\ub9ac\uc544\uad00\uad11\ud638\ud154"}, {"latitude": "37.4739859313", "price": 220000, "star": 4, "longitude": "127.048041462", "title": "\uc2e0\uc9c4\uc591\ub808\uc800\uad00\uad11"}, {"latitude": "37.2685886768", "price": 480000, "star": 1, "longitude": "126.999171175", "title": "\ub178\ubcf4\ud154\uc570\ubc30\uc11c\ub354 \uc218\uc6d0"}, {"latitude": "37.5549326509", "price": 340000, "star": 5, "longitude": "126.852732731", "title": "\ubca0\ub2c8\ud0a4\uc544\ud504\ub9ac\ubbf8\uc5b4\ub178\uc2a4\ud0c8\uc790\ud638\ud154"}, {"latitude": "37.530480306", "price": 320000, "star": 5, "longitude": "126.846431676", "title": "\ud504\ub85c\ubc29\uc2a4\ud638\ud154"}, {"latitude": "37.2817791056", "price": 460000, "star": 2, "longitude": "126.971627992", "title": "\uba54\uc774\ud2b8\ud638\ud154"}, {"latitude": "37.5171828002", "price": 240000, "star": 1, "longitude": "126.903445178", "title": "\uba54\ub9ac\uc5b4\ud2b8\ud638\ud154"}, {"latitude": "37.5557653511", "price": 340000, "star": 1, "longitude": "127.005319398", "title": "\uc11c\uc6b8\uc2e0\ub77c\ud638\ud154 \ub354 \ud30c\ud06c\ubdf0"}, {"latitude": "37.5163748429", "price": 200000, "star": 5, "longitude": "127.110976194", "title": "\uc544\uc774\ub2e4\ud638\ud154"}, {"latitude": "37.6600229702", "price": 520000, "star": 2, "longitude": "126.770718653", "title": "\ub808\uc9c0\ub358\uc2a4\uc564\uc720"}, {"latitude": "37.5160306678", "price": 500000, "star": 1, "longitude": "127.113140876", "title": "\uc138\ub974\ube4c\ud638\ud154"}, {"latitude": "37.5457915398", "price": 260000, "star": 3, "longitude": "127.125101399", "title": "\ubc14\uace0\uad00\uad11\ud638\ud154"}, {"latitude": "37.4793531588", "price": 380000, "star": 1, "longitude": "126.888564385", "title": "\uc5d0\ud3a0\uc900"}, {"latitude": "37.548194911", "price": 320000, "star": 4, "longitude": "126.81998358", "title": "\ud2f0\ud30c\ub2c8\ud638\ud154"}, {"latitude": "37.4846639921", "price": 480000, "star": 4, "longitude": "126.788022375", "title": "\ud504\ub77c\ud558"}, {"latitude": "37.5165677876", "price": 480000, "star": 2, "longitude": "127.111471643", "title": "\uc9c0\uc564\uc5d0\ud504\ud638\ud154"}, {"latitude": "37.6197263952", "price": 220000, "star": 4, "longitude": "126.917744657", "title": "\ub3c4\uadf8\uc6d0 \uc560\uacac\ud638\ud154"}, {"latitude": "37.6303665575", "price": 200000, "star": 4, "longitude": "126.830661866", "title": "\ud638\ud154\uc258"}, {"latitude": "37.6511224181", "price": 400000, "star": 5, "longitude": "127.035770188", "title": "\uc2e0\ub3d9\uc544\uc528\uc5d4\uc528"}, {"latitude": "37.3856003505", "price": 460000, "star": 4, "longitude": "127.120300667", "title": "\uc5d0\uc2a4\uc54c"}, {"latitude": "37.4510278022", "price": 380000, "star": 4, "longitude": "126.707134389", "title": "\ud638\ud154 \ub354 \ub514\uc790\uc774\ub108\uc2a4"}, {"latitude": "37.6546789924", "price": 440000, "star": 1, "longitude": "127.058922959", "title": "\uc544\ub3c4\ub2c8\uc2a4\ud638\ud154 \uc11c\uc6b8\uc0ac\ubb34\uc18c"}, {"latitude": "37.4743297383", "price": 600000, "star": 1, "longitude": "126.617229228", "title": "\ud30c\ub77c\ub2e4\uc774\uc2a4\ud638\ud154 \uc778\ucc9c"}, {"latitude": "37.506104294", "price": 600000, "star": 3, "longitude": "126.757217718", "title": "\ube44\uc2a4\ud14c\uc774\ubd80\ucc9c\ud638\ud154"}, {"latitude": "37.6749790455", "price": 280000, "star": 5, "longitude": "126.748356001", "title": "\ubc00\ub808\ub2c8\uc5c4\ud638\ud154"}, {"latitude": "37.3998152485", "price": 380000, "star": 5, "longitude": "126.976287796", "title": "\uc13c\ud2b8\ub7f4\uad00\uad11\ud638\ud154"}, {"latitude": "37.5397680699", "price": 580000, "star": 5, "longitude": "127.12450405", "title": "\ud50c\ub7ec\uc2a4\ud638\ud154"}, {"latitude": "37.5051618929", "price": 340000, "star": 2, "longitude": "126.749022203", "title": "\ud3f4\ub77c\ub9ac\uc2a4\ud638\ud154"}, {"latitude": "37.5165513696", "price": 440000, "star": 3, "longitude": "127.112885856", "title": "\ud544\ub98437.2\ud638\ud154"}, {"latitude": "37.3935055503", "price": 420000, "star": 5, "longitude": "126.930171846", "title": "\uc544\ubc1c\ub860\ud638\ud154"}, {"latitude": "37.302206454", "price": 500000, "star": 3, "longitude": "126.850047604", "title": "\uc11c\uc6d0\uad00\uad11\ud638\ud154"}, {"latitude": "37.5486775508", "price": 240000, "star": 4, "longitude": "126.819591211", "title": "\ubd90\ud638\ud154"}, {"latitude": "37.6271282971", "price": 580000, "star": 1, "longitude": "126.560324372", "title": "\uc544\uc774\uba54\ub9ac\uce20\ud638\ud154"}, {"latitude": "37.5397086019", "price": 200000, "star": 4, "longitude": "127.124991318", "title": "\ud638\ud154\uc774\ub108\uc2a4"}, {"latitude": "37.3919577184", "price": 500000, "star": 4, "longitude": "126.931390898", "title": "\ucf54\uc554\uad00\uad11\ud638\ud154"}, {"latitude": "37.3022172851", "price": 540000, "star": 5, "longitude": "126.85116413", "title": "\ud0dc\ud3c9\uc591\uad00\uad11\ud638\ud154"}, {"latitude": "37.6297888272", "price": 460000, "star": 1, "longitude": "127.09538813", "title": "\ud638\ud154\ub9ac\ubca0\ub77c\uc0ac\uc774\ud310 \uc11c\uc6b8\ubb38\uc758\ucc98"}, {"latitude": "37.5012326048", "price": 200000, "star": 2, "longitude": "127.04118171", "title": "\uc608\uc2a4\ubaa8\ud154"}, {"latitude": "37.4524269771", "price": 320000, "star": 3, "longitude": "126.70243127", "title": "\uc13c\ud2b8\ub7f4\ud504\ub77c\uc790 \ud638\ud154"}, {"latitude": "37.6003848585", "price": 240000, "star": 5, "longitude": "127.064906284", "title": "\ub77c\uc6b8&amp;\ub808\ubbf8\ud3ab\uc2dc\ud130\uc560\uacac\ud558\uc6b0\uc2a4"}, {"latitude": "37.641620147", "price": 300000, "star": 4, "longitude": "126.788629675", "title": "\ud638\ud154\ud074\ub808\uc624\ud30c\ud2b8\ub77c"}, {"latitude": "37.6442100446", "price": 300000, "star": 1, "longitude": "126.787261914", "title": "\ubbf8\ub77c\ubca8\ud638\ud154"}, {"latitude": "37.5300719696", "price": 540000, "star": 5, "longitude": "126.840611277", "title": "GMVILLE"}, {"latitude": "37.4388647873", "price": 560000, "star": 4, "longitude": "126.461051137", "title": "\ud638\ud154\ud734"}, {"latitude": "37.4860506116", "price": 200000, "star": 2, "longitude": "127.013875719", "title": "\ud55c\uad6d\ud638\ud154\uc804\ubb38\uacbd\uc601\uc778\ud611\ud68c"}, {"latitude": "37.4869661008", "price": 600000, "star": 4, "longitude": "127.013445321", "title": "\uc774\uc0ac\ubca8\ud638\ud154"}, {"latitude": "37.6303576608", "price": 560000, "star": 1, "longitude": "126.830673334", "title": "\uc258"}, {"latitude": "37.390591748", "price": 220000, "star": 5, "longitude": "126.805448542", "title": "\ubca8\ub77c\uc9c0\uc624\ud638\ud154"}, {"latitude": "37.380346089", "price": 260000, "star": 5, "longitude": "126.97454226", "title": "\ud638\ud154\uc628"}, {"latitude": "37.4384258387", "price": 240000, "star": 4, "longitude": "126.459862355", "title": "\ubca0\uc2a4\ud2b8\uc6e8\uc2a4\ud134 \ud504\ub9ac\ubbf8\uc5b4 \uc778\ucc9c \uc5d0\uc5b4\ud3ec\ud2b8"}, {"latitude": "37.6421895515", "price": 260000, "star": 4, "longitude": "126.788801732", "title": "\uce98\ub9ac\ud3ec\ub2c8\uc544\ud638\ud154"}, {"latitude": "37.5001433862", "price": 520000, "star": 5, "longitude": "127.42145222", "title": "\ud604\ub300\ube14\ub8f8\ube44\uc2a4\ud0c0"}, {"latitude": "37.3890385246", "price": 240000, "star": 1, "longitude": "126.644520119", "title": "\uc624\ud06c\uc6b0\ub4dc\ud504\ub9ac\ubbf8\uc5b4 \uc778\ucc9c"}, {"latitude": "37.5049497686", "price": 280000, "star": 2, "longitude": "127.052964859", "title": "\uc81c\uc774\ube44\uc2a4\ud638\ud154"}, {"latitude": "37.5397299366", "price": 480000, "star": 4, "longitude": "127.124221604", "title": "\ubb34\uc624\ub798\ud638\ud154"}, {"latitude": "37.5996795985", "price": 240000, "star": 5, "longitude": "126.771360079", "title": "\ub7ed\uc2a4\ud638\ud154"}, {"latitude": "37.4746044676", "price": 220000, "star": 3, "longitude": "126.600752345", "title": "\uc2dc\ud06c\ub9bf\uad00\uad11\ud638\ud154"}, {"latitude": "37.253715574", "price": 400000, "star": 4, "longitude": "127.07279777", "title": "\ub79c\ub4dc\ub9c8\ud06c\ud638\ud154"}, {"latitude": "37.3922283726", "price": 200000, "star": 4, "longitude": "126.637472399", "title": "\uacbd\uc6d0\uc7ac \uc570\ubc30\uc11c\ub354 \uc778\ucc9c"}, {"latitude": "37.5363806017", "price": 560000, "star": 3, "longitude": "127.136831855", "title": "\ud30c\ub780\ud558\ub298\uc564\ub4dc\uc9c0"}, {"latitude": "37.3021580313", "price": 500000, "star": 2, "longitude": "126.863708069", "title": "\ub274\ub77c\uc131\uad00\uad11\ud638\ud154"}, {"latitude": "37.6574257518", "price": 460000, "star": 3, "longitude": "126.773096065", "title": "\ub300\uc591\ud638\ud154"}, {"latitude": "37.6419600355", "price": 260000, "star": 5, "longitude": "126.788386214", "title": "\ud544\uadf8\ub9b0\ud638\ud154"}, {"latitude": "37.597638017", "price": 220000, "star": 4, "longitude": "127.141074606", "title": "\ud638\ud154\ub809\uc2dc"}, {"latitude": "37.3883283895", "price": 600000, "star": 2, "longitude": "126.640738657", "title": "\uc624\ub77c\uce74\uc774 \uc1a1\ub3c4\ud30c\ud06c \ud638\ud154"}, {"latitude": "37.6559218662", "price": 360000, "star": 3, "longitude": "126.833638889", "title": "\ub178\ube14\ub808\uc2a4\ud638\ud154"}, {"latitude": "37.3903296569", "price": 260000, "star": 4, "longitude": "126.637687416", "title": "\uc1a1\ub3c4\uc13c\ud2b8\ub7f4\ud30c\ud06c\ud638\ud154"}, {"latitude": "37.5027992675", "price": 500000, "star": 4, "longitude": "126.763402322", "title": "\ud638\ud154\ucf54\ubcf4\uc2a4"}, {"latitude": "37.7765637292", "price": 400000, "star": 4, "longitude": "126.687563554", "title": "\uc704\uc988\ud638\ud154"}, {"latitude": "37.5186058112", "price": 420000, "star": 2, "longitude": "126.726286959", "title": "\uc774\ucf54\ub178\ubbf8\ud638\ud154 \uc778\ucc9c\ubd80\ud3c9\uc810"}, {"latitude": "37.4828716499", "price": 500000, "star": 5, "longitude": "127.045961477", "title": "\uac15\uc544\uc9c0\uc18c\ud48d"}, {"latitude": "37.7499134738", "price": 260000, "star": 1, "longitude": "127.072063222", "title": "\uc758\uc815\ubd80 \ub77c\ud2b8\ub9ac\ud638\ud154"}, {"latitude": "37.2184769689", "price": 480000, "star": 4, "longitude": "127.079008807", "title": "\uc81c\uc774\uc5d0\uc2a4 \ubd80\ud2f0\ud06c \ud638\ud154"}, {"latitude": "37.4919907753", "price": 480000, "star": 1, "longitude": "126.991689913", "title": "\ub0a8\uc11c\uc6b8\ud3ab\uc0b4\ub871"}, {"latitude": "37.5064702722", "price": 440000, "star": 2, "longitude": "126.750052249", "title": "\ud14c\ub9c8\ud30c\ud06c\uad00\uad11\ud638\ud154"}, {"latitude": "37.6762950031", "price": 420000, "star": 3, "longitude": "126.749252135", "title": "\ub9ac\uce58\ud638\ud154"}, {"latitude": "37.2623854129", "price": 560000, "star": 2, "longitude": "127.033469535", "title": "S\ud638\ud154"}, {"latitude": "37.2585108471", "price": 300000, "star": 5, "longitude": "127.033485153", "title": "\ub9ac\uce20\ud638\ud154"}, {"latitude": "37.3099760225", "price": 540000, "star": 1, "longitude": "126.868069073", "title": "\ub9ac\uc624 \uad00\uad11\ud638\ud154"}, {"latitude": "37.2872026449", "price": 260000, "star": 1, "longitude": "127.216799134", "title": "\ube14\ub8e8\ud790\ud638\ud154"}, {"latitude": "37.52987598", "price": 280000, "star": 4, "longitude": "126.780820457", "title": "\uc6e8\uc2a4\ud2b8\ube4c"}, {"latitude": "37.260553667", "price": 300000, "star": 2, "longitude": "127.025454782", "title": "\ubcf4\ubcf4\uc2a4\ud638\ud154"}, {"latitude": "37.3144671159", "price": 560000, "star": 2, "longitude": "126.798902474", "title": "\ud638\ud154\uc778\ud130\ubd88\uace0 \uc548\uc0b0"}, {"latitude": "37.7418139216", "price": 600000, "star": 4, "longitude": "127.047259052", "title": "\ubc18\uc6d4\ud638\ud154"}, {"latitude": "37.7767952875", "price": 200000, "star": 2, "longitude": "126.687321087", "title": "\ud790\uc988\ud638\ud154"}, {"latitude": "37.262173976", "price": 540000, "star": 5, "longitude": "127.025253552", "title": "\ud504\ub9b0\uc2a4\uad00\uad11\ud638\ud154"}, {"latitude": "37.6278902584", "price": 420000, "star": 4, "longitude": "126.913876594", "title": "\ub178\ub8e8\ub124\ud3ab\uc2dc\ud130"}, {"latitude": "37.4010082214", "price": 500000, "star": 2, "longitude": "126.735224095", "title": "\ud3f4\ub85c\ud638\ud154"}, {"latitude": "37.4339895099", "price": 440000, "star": 1, "longitude": "127.132707617", "title": "\ud790\ub77c\uc2dc\uc2a4\ud638\ud154"}, {"latitude": "37.6548755518", "price": 540000, "star": 4, "longitude": "126.773931278", "title": "\ub85c\uc584\ube14\ub8e8\ub808\uc9c0\ub358\uc2a4"}, {"latitude": "37.5046262321", "price": 320000, "star": 1, "longitude": "127.038548316", "title": "\uc18c\uc6b8\ud3ab"}, {"latitude": "37.4461380352", "price": 320000, "star": 1, "longitude": "126.456370651", "title": "\uc778\ucc9c\uacf5\ud56d \ud658\uc2b9 \ud638\ud154"}, {"latitude": "37.3932789818", "price": 240000, "star": 4, "longitude": "126.633252366", "title": "\ud640\ub9ac\ub370\uc774 \uc778 \uc778\ucc9c \uc1a1\ub3c4"}, {"latitude": "37.6751739872", "price": 440000, "star": 5, "longitude": "126.748046662", "title": "\ub7ed\uc154\ub9ac\ud638\ud154"}, {"latitude": "37.4744428437", "price": 500000, "star": 1, "longitude": "126.598516913", "title": "\ubca0\ub2c8\ud0a4\uc544\ud638\ud154 \uc6d4\ubbf8\ub3c4 \ubc14\ub2e4\uc758\ubcc4"}, {"latitude": "37.4006329204", "price": 320000, "star": 4, "longitude": "126.709637486", "title": "\uc2a4\ud154\ub77c\ub9c8\ub9ac\ub098\ud638\ud154"}, {"latitude": "37.7230758558", "price": 220000, "star": 2, "longitude": "126.946882869", "title": "\ud574\ud638\ud154"}, {"latitude": "37.4945992936", "price": 460000, "star": 2, "longitude": "126.489547701", "title": "\ud638\ud154\uc5d0\uc5b4\ub9b4\ub809\uc2a4"}, {"latitude": "37.7496347199", "price": 420000, "star": 1, "longitude": "127.072134783", "title": "\uc81c\uc774\ube44\uc2a4\ud638\ud154"}, {"latitude": "37.7445467045", "price": 400000, "star": 1, "longitude": "127.053192445", "title": "\uc758\uc815\ubd80\uad00\uad11\ud638\ud154"}, {"latitude": "37.6385585939", "price": 420000, "star": 5, "longitude": "126.551946385", "title": "\uc57d\uc554\ud64d\uc5fc\ucc9c\uad00\uad11\ud638\ud154"}, {"latitude": "37.7094690956", "price": 420000, "star": 3, "longitude": "127.111048393", "title": "\uace8\ub4dc\uad00\uad11\ud638\ud154"}, {"latitude": "37.2389240092", "price": 240000, "star": 4, "longitude": "127.057357825", "title": "\ub354\ud638\ud154"}, {"latitude": "37.5027473431", "price": 560000, "star": 4, "longitude": "126.763606753", "title": "\ub85c\uc794\ud638\ud154"}, {"latitude": "37.4591608756", "price": 560000, "star": 3, "longitude": "126.874293013", "title": "\uc258\ube0c\ub974\ud638\ud154"}, {"latitude": "37.2887605163", "price": 460000, "star": 1, "longitude": "127.096322868", "title": "\uc2a4\ud0c0\ud638\ud154"}, {"latitude": "37.4843340577", "price": 520000, "star": 4, "longitude": "126.813242295", "title": "\uccb4\ub9ac\ud638\ud154"}, {"latitude": "37.5157384604", "price": 480000, "star": 2, "longitude": "127.110225826", "title": "\ubca8\ub9ac\uc2dc\ubaa8"}, {"latitude": "37.6290027691", "price": 280000, "star": 4, "longitude": "127.34989799", "title": "\ud558\uc774\ub9c8\ud2b8\ud638\ud154"}, {"latitude": "37.503042623", "price": 340000, "star": 4, "longitude": "126.763409622", "title": "\ud638\ud154\uc2dc\ud2f0"}, {"latitude": "37.2615209964", "price": 380000, "star": 2, "longitude": "127.034653042", "title": "\ubc38\ub958 \ud638\ud154 \ud558\uc774\uc5d4\ub4dc"}, {"latitude": "37.4007503791", "price": 520000, "star": 2, "longitude": "126.736391741", "title": "\uc18c\ub798\ud638\ud154\uce74\uce74\uc624"}, {"latitude": "37.5287616802", "price": 460000, "star": 4, "longitude": "126.846673074", "title": "\ud638\ud154\ubcfc"}, {"latitude": "37.5326895778", "price": 260000, "star": 4, "longitude": "126.735585605", "title": "\uc544\ub9c8\ub808 \uad11\uad11\ud638\ud154"}, {"latitude": "37.4657224157", "price": 280000, "star": 2, "longitude": "126.708667678", "title": "\uace8\ub4e0\ud638\ud154"}, {"latitude": "37.4100653703", "price": 360000, "star": 3, "longitude": "127.213942649", "title": "\ub85c\uc584\ud30c\ud06c"}, {"latitude": "37.5432563884", "price": 240000, "star": 2, "longitude": "126.714495735", "title": "\uce90\ud53c\ud0c8\uad00\uad11\ud638\ud154"}, {"latitude": "37.6417804435", "price": 200000, "star": 5, "longitude": "126.788445781", "title": "\ud638\ud154\ub85c\uc820\ud558\uc784"}, {"latitude": "37.433207034", "price": 500000, "star": 2, "longitude": "127.131677067", "title": "\uc131\ub0a8\uadf8\ub79c\ub4dc\ud638\ud154"}, {"latitude": "37.41622068", "price": 380000, "star": 4, "longitude": "126.651430093", "title": "\uc1a1\ub3c4\uc54c\ub9ac\uc2a4\uc704\ud2b8\ud638\ud154"}, {"latitude": "37.4920560751", "price": 400000, "star": 2, "longitude": "126.728298014", "title": "\uc544\ud2b8\ud638\ud154"}, {"latitude": "37.5933118328", "price": 300000, "star": 3, "longitude": "126.698383464", "title": "\ub3d9\uc778\uad00\uad11\ud638\ud154"}, {"latitude": "37.7888948339", "price": 220000, "star": 3, "longitude": "126.688878367", "title": "\ud638\ud154\ud050"}, {"latitude": "37.4187949153", "price": 200000, "star": 3, "longitude": "126.653564289", "title": "\uc774\ucc44\ud638\ud154"}, {"latitude": "37.9012055886", "price": 600000, "star": 1, "longitude": "127.057752767", "title": "\uc720\ub9bc\uad00\uad11\ud638\ud154"}, {"latitude": "37.7119026588", "price": 600000, "star": 5, "longitude": "127.187451854", "title": "\ud638\ud154\ub098\uc778"}, {"latitude": "37.3270339597", "price": 600000, "star": 2, "longitude": "126.801275292", "title": "\ub77c\uc131 \uad00\uad11\ud638\ud154"}, {"latitude": "37.14556738", "price": 440000, "star": 5, "longitude": "127.073082027", "title": "\ub7ed\uc154\ub9ac\uad00\uad11\ud638\ud154"}, {"latitude": "37.2026265546", "price": 280000, "star": 2, "longitude": "127.073219383", "title": "\uc2e0\ub77c\uc2a4\ud14c\uc774"}, {"latitude": "37.2856245318", "price": 480000, "star": 1, "longitude": "126.573086632", "title": "\ub300\ubd80\ub3c4\uad00\uad11\ud638\ud154"}, {"latitude": "37.3995612108", "price": 480000, "star": 4, "longitude": "126.736411688", "title": "SJ\ub514\uc790\uc778\ud638\ud154"}, {"latitude": "37.4833586178", "price": 340000, "star": 4, "longitude": "126.708941145", "title": "\uc778\ucc9c\uad00\uad11\ud638\ud154"}, {"latitude": "37.3079329378", "price": 440000, "star": 2, "longitude": "126.848674515", "title": "\uc544\uc6b0\ub77c\ud638\ud154"}, {"latitude": "37.378400574", "price": 320000, "star": 1, "longitude": "126.975675256", "title": "\ud638\ud154\ub85c\ube14"}, {"latitude": "37.4944396482", "price": 220000, "star": 3, "longitude": "126.492570187", "title": "\ud638\ud154\uc900"}, {"latitude": "37.2710761715", "price": 220000, "star": 3, "longitude": "127.107572468", "title": "\ud638\ud154\ub9ac\ubc84"}, {"latitude": "37.7188355576", "price": 600000, "star": 1, "longitude": "126.899848014", "title": "\ud638\ud154\ub9b0"}, {"latitude": "37.6249652403", "price": 600000, "star": 4, "longitude": "126.487470748", "title": "\uac15\ud654\ub85c\uc584\uc6cc\ud130\ud30c\ud06c \ub85c\uc584\ud638\ud154"}, {"latitude": "37.443811397", "price": 340000, "star": 4, "longitude": "126.790726396", "title": "\ud638\ud154\ub77c\ubca4\ub354"}, {"latitude": "37.7726153534", "price": 500000, "star": 1, "longitude": "127.164415991", "title": "\ud638\ud154\uc218\ubaa9\uc6d0"}, {"latitude": "37.4191396926", "price": 500000, "star": 2, "longitude": "126.650609603", "title": "\ubb34\uc778\ud154\ud050\ube0c"}, {"latitude": "37.3889136772", "price": 520000, "star": 5, "longitude": "127.122373795", "title": "\uc870\uc774\ud0c0\uc6b4"}, {"latitude": "37.4844067013", "price": 380000, "star": 2, "longitude": "126.784023853", "title": "\ud544\ub98437.2\ud638\ud154"}, {"latitude": "37.2713690074", "price": 580000, "star": 1, "longitude": "127.106971423", "title": "\ud3f4\ud638\ud154"}, {"latitude": "37.2892721176", "price": 400000, "star": 4, "longitude": "127.099609939", "title": "\uc6d0\uc838\uce90\uc2ac \uad00\uad11\ud638\ud154"}, {"latitude": "37.4409248925", "price": 520000, "star": 2, "longitude": "126.786896747", "title": "\ud638\ud1548\uc6d4 \uc2dc\ud765\uc810"}, {"latitude": "37.2596342453", "price": 280000, "star": 3, "longitude": "127.03312134", "title": "\ud5c8\ube0c\ud638\ud154"}, {"latitude": "37.3430991835", "price": 440000, "star": 4, "longitude": "126.736206262", "title": "\uc81c\uc774\ud0d1 \ud638\ud154"}, {"latitude": "37.2546190696", "price": 520000, "star": 3, "longitude": "127.075413282", "title": "\uc544\ubaa8\ub974\uc564\uc2ec\ud3ec\ub2c8\uad00\uad11\ud638\ud154"}, {"latitude": "37.726425204", "price": 480000, "star": 3, "longitude": "126.697466166", "title": "\ubc18\ub514\ud638\ud154"}, {"latitude": "37.2737804255", "price": 600000, "star": 3, "longitude": "127.017662221", "title": "\ub9ac\uc820\uc2dc\uad00\uad11\ud638\ud154"}, {"latitude": "37.5150668648", "price": 240000, "star": 1, "longitude": "127.108389944", "title": "\uc2e4\ub860\ud638\ud154"}, {"latitude": "37.2845871704", "price": 560000, "star": 4, "longitude": "127.016901713", "title": "\ub274\uc218\uc6d0\uad00\uad11\ud638\ud154"}, {"latitude": "37.4424648981", "price": 580000, "star": 5, "longitude": "126.789459766", "title": "\ud638\ud154\ud3ec\uc720"}, {"latitude": "37.1465459074", "price": 220000, "star": 4, "longitude": "126.872735219", "title": "\uc138\ud654\ud638\ud154"}, {"latitude": "37.5155524549", "price": 500000, "star": 1, "longitude": "127.108259744", "title": "\ub77c\uc790\ud638\ud154"}, {"latitude": "37.1624756238", "price": 520000, "star": 3, "longitude": "127.052969799", "title": "\ub7ec\uc2a4\ud2b8"}, {"latitude": "37.4604837014", "price": 480000, "star": 3, "longitude": "126.682997506", "title": "\ud638\ud154\uc36c\ud50c\ub77c\uc6cc"}, {"latitude": "37.2002316933", "price": 260000, "star": 1, "longitude": "126.827984195", "title": "\uc2a4\uce74\uc774\ud638\ud154"}, {"latitude": "37.4420597087", "price": 480000, "star": 3, "longitude": "127.133473499", "title": "\ub274\uc11c\uc6b8\ud638\ud154"}, {"latitude": "37.5326964084", "price": 420000, "star": 2, "longitude": "126.735381834", "title": "\ubc18\ub3c4\uad00\uad11\ud638\ud154"}, {"latitude": "37.739372918", "price": 200000, "star": 4, "longitude": "127.045123222", "title": "<b>Hotel</b> MGM"}, {"latitude": "37.2338799973", "price": 320000, "star": 1, "longitude": "127.20934849", "title": "\ud638\ud154\uc2dc\ub124\ub9c8 \uc6a9\uc778\uc9c0\uc810"}, {"latitude": "37.5081963732", "price": 440000, "star": 3, "longitude": "127.044350291", "title": "\uc559\uc96c\ud558\uc6b0\uc2a4"}, {"latitude": "37.5456302221", "price": 440000, "star": 4, "longitude": "126.673286932", "title": "\ud3ec\uc2dc\uc98c\uad00\uad11\ud638\ud154"}, {"latitude": "37.2255739186", "price": 600000, "star": 2, "longitude": "127.104412018", "title": "\uc544\ubbf8\ubd80\ub760\ud06c\ud638\ud154"}, {"latitude": "37.3450386207", "price": 340000, "star": 4, "longitude": "126.733036287", "title": "\ud638\ud154 \ub098\ube44\uc57c"}, {"latitude": "37.2814575983", "price": 580000, "star": 5, "longitude": "126.970921927", "title": "JJ <b>Hotel</b>"}, {"latitude": "37.2583876505", "price": 220000, "star": 4, "longitude": "127.032742684", "title": "\uc774\uc9c0\ub808\uc9c0\ub358\uc2a4\ud638\ud154"}, {"latitude": "37.7606127349", "price": 400000, "star": 1, "longitude": "126.967347402", "title": "\ud504\ub85c\ubc29\uc2a4\ud638\ud154"}, {"latitude": "37.453930132", "price": 220000, "star": 5, "longitude": "126.602629139", "title": "\ubbf8\ub780\ub2e4\ud638\ud154"}, {"latitude": "37.2668677808", "price": 440000, "star": 3, "longitude": "127.028440225", "title": "\uc2e4\ud06c\ub85c\ub4dc\uad00\uad11\ud638\ud154"}, {"latitude": "37.4728730306", "price": 240000, "star": 5, "longitude": "126.597585272", "title": "\ubca0\ub2c8\ud0a4\uc544 \uc6d4\ubbf8\ub3c4 \ub354\ube14\ub9ac\uc2a4\ud638\ud154"}, {"latitude": "37.5451408564", "price": 240000, "star": 2, "longitude": "126.674642205", "title": "SG\uad00\uad11\ud638\ud154"}, {"latitude": "37.7771667225", "price": 520000, "star": 2, "longitude": "126.688313444", "title": "\ud638\ud154W2"}, {"latitude": "37.2604562251", "price": 480000, "star": 2, "longitude": "127.025658961", "title": "\uba54\ub974\ub514\ud638\ud154"}, {"latitude": "37.6782404035", "price": 460000, "star": 4, "longitude": "127.473914148", "title": "\uac00\ud3c9\uc124\uc545\uad00\uad11\ud638\ud154"}, {"latitude": "37.4170892281", "price": 520000, "star": 4, "longitude": "126.650951369", "title": "\uc544\ub9c8\ub808"}, {"latitude": "37.5051638229", "price": 280000, "star": 4, "longitude": "127.059465629", "title": "\ucea3\ud2c0\ub9ac\uc5d0"}, {"latitude": "37.5036358538", "price": 560000, "star": 4, "longitude": "127.424388663", "title": "W\ud638\ud154"}, {"latitude": "37.7365610252", "price": 220000, "star": 1, "longitude": "127.043922628", "title": "\ub809\uc2a4\ud134\ud638\ud154"}, {"latitude": "37.4945914068", "price": 500000, "star": 4, "longitude": "126.491752951", "title": "\uc778\ucc9c\uacf5\ud56d\ud638\ud154 \ud038"}, {"latitude": "37.366187278", "price": 420000, "star": 5, "longitude": "127.105353879", "title": "\ub370\ubaa8\ub098 \ubd84\ub2f9"}, {"latitude": "37.4536694258", "price": 240000, "star": 3, "longitude": "126.602679194", "title": "\uc774\uce20\uad00\uad11\ud638\ud154"}, {"latitude": "37.4945793056", "price": 600000, "star": 5, "longitude": "126.488688683", "title": "\ud638\ud154\uc2a4\uce74\uc774"}, {"latitude": "37.2058638891", "price": 560000, "star": 2, "longitude": "127.074678177", "title": "\ub77c\ub9c8\ub2e4\ub3d9\ud0c4\ud638\ud154"}, {"latitude": "37.7755622245", "price": 280000, "star": 4, "longitude": "126.941111067", "title": "\ubc84\ud0b9\uac80\ud638\ud154"}, {"latitude": "37.2663731462", "price": 240000, "star": 5, "longitude": "127.031862756", "title": "\ud638\ud154\ubcf8"}, {"latitude": "37.3252227092", "price": 360000, "star": 4, "longitude": "127.101607748", "title": "\ud790\ud638\ud154"}, {"latitude": "37.2348341645", "price": 540000, "star": 3, "longitude": "127.206498507", "title": "\uce98\ub9ac\ud3ec\ub2c8\uc544\ud638\ud154"}, {"latitude": "37.4929194569", "price": 240000, "star": 1, "longitude": "126.727310884", "title": "\ub808\ub2c8\uc5d8"}, {"latitude": "37.3536901823", "price": 200000, "star": 5, "longitude": "126.723104973", "title": "\ubd80\ud2f0\ud06c\ud638\ud154k \uc624\uc774\ub3c4\uc810"}, {"latitude": "37.6920975608", "price": 240000, "star": 2, "longitude": "126.76196953", "title": "\ub2c8\uaf2c\ud638\ud154"}, {"latitude": "37.7772833667", "price": 240000, "star": 1, "longitude": "126.687460033", "title": "\ud638\ud154 \uadf8\uacf3\uc560"}, {"latitude": "37.2659980049", "price": 380000, "star": 3, "longitude": "127.030063635", "title": "\uc13c\ud2b8\ub7f4 \ud504\ub77c\uc790 \ud638\ud154"}, {"latitude": "37.4944353966", "price": 320000, "star": 4, "longitude": "126.492943441", "title": "\uc81c\uc6b0\uba54\uc2a4\ud638\ud154"}, {"latitude": "37.4942823831", "price": 460000, "star": 2, "longitude": "126.536709045", "title": "\uc601\uc885\ud638\ud154"}, {"latitude": "37.6900259876", "price": 200000, "star": 3, "longitude": "126.762899646", "title": "\uc544\ubc14\ud0c0\ud638\ud154"}, {"latitude": "37.4741760407", "price": 460000, "star": 1, "longitude": "126.599573277", "title": "\uc544\uc774\ub124\uc774\ubc84\uad00\uad11\ud638\ud154"}, {"latitude": "37.4945253235", "price": 540000, "star": 2, "longitude": "126.491516808", "title": "\uc138\ube44\uc57c\uad00\uad11\ud638\ud154"}, {"latitude": "37.3899004206", "price": 520000, "star": 1, "longitude": "126.740492264", "title": "\uc13c\ud2b8\ub85c\ud638\ud154"}, {"latitude": "37.265540638", "price": 460000, "star": 5, "longitude": "127.028130293", "title": "\uc81c\uc774\uc5e0\ud638\ud154"}, {"latitude": "37.6162559578", "price": 560000, "star": 1, "longitude": "127.34393726", "title": "\ubd81\ud55c\uac15\ud638\ud154"}, {"latitude": "37.4750215068", "price": 460000, "star": 2, "longitude": "126.644292909", "title": "\ud638\ud154\uc544\uc774"}, {"latitude": "37.4191582295", "price": 360000, "star": 5, "longitude": "126.651445249", "title": "\uc1a1\ub3c4\ub85c\uc81c\ud638\ud154"}, {"latitude": "37.4176094301", "price": 320000, "star": 2, "longitude": "126.676269454", "title": "\uc544\uc81c\ub77c\uad00\uad11\ud638\ud154"}, {"latitude": "37.9060286962", "price": 440000, "star": 4, "longitude": "127.054723398", "title": "\uc2dc\ub9c8\ud638\ud154"}, {"latitude": "37.7428319724", "price": 380000, "star": 3, "longitude": "126.975184896", "title": "\ud544\ud638\ud154"}, {"latitude": "37.2886581523", "price": 580000, "star": 4, "longitude": "127.097079711", "title": "\ub77c\uace0\ud638\ud154"}, {"latitude": "37.6921410575", "price": 320000, "star": 2, "longitude": "126.761821407", "title": "\uc2f8\uc774\ubc8421\ud638\ud154"}, {"latitude": "37.4191398214", "price": 320000, "star": 1, "longitude": "126.650620897", "title": "\ud638\ud154 \ud050\ube0c"}, {"latitude": "37.4770610415", "price": 600000, "star": 1, "longitude": "126.60048047", "title": "\uc2a4\ud154\ub77c \ub9c8\ub9ac\uc2a4 \ud638\ud154"}, {"latitude": "37.2642517935", "price": 400000, "star": 1, "longitude": "127.029195335", "title": "\ucf54\ub9ac\uc544\uad00\uad11\ud638\ud154"}, {"latitude": "37.3377331755", "price": 380000, "star": 5, "longitude": "126.749341435", "title": "\ubca0\uc2a4\ud2b8\uc778\ud638\ud154"}, {"latitude": "37.2092619041", "price": 440000, "star": 1, "longitude": "127.062165212", "title": "\ud37c\uc2a4\ud2b8\uc5d0\ube44\ub274\ub808\uc9c0\ub358\uc2a4"}, {"latitude": "37.3912069471", "price": 560000, "star": 4, "longitude": "126.741339982", "title": "\uc258\ubd80\ub974"}, {"latitude": "37.2640005597", "price": 360000, "star": 2, "longitude": "127.030427441", "title": "\ub514\uc544\ub9dd\uc2a4\uc704\ud2b8\ube44\uc988\ub2c8\uc2a4\ud638\ud154"}, {"latitude": "37.4945229895", "price": 380000, "star": 3, "longitude": "126.489922406", "title": "\uc778\ucc9c\uc5d0\uc5b4\ud154"}, {"latitude": "37.4593279234", "price": 520000, "star": 4, "longitude": "126.687640723", "title": "\ub290\ub08c\ud45c\ud638\ud154"}, {"latitude": "37.7775467485", "price": 520000, "star": 4, "longitude": "126.687648354", "title": "I.M.T\ud638\ud154"}, {"latitude": "37.2654532002", "price": 320000, "star": 5, "longitude": "127.035076447", "title": "\ubc84\ud2c0\ub7ec\ud638\ud154"}, {"latitude": "37.2623124976", "price": 580000, "star": 1, "longitude": "127.034473846", "title": "\ud638\ud154\ub7ed\uc154\ub9ac"}, {"latitude": "37.3171919772", "price": 420000, "star": 1, "longitude": "126.841798146", "title": "\ub7ed\uc154\ub9ac\ud638\ud154"}, {"latitude": "37.7083589467", "price": 240000, "star": 2, "longitude": "126.686781513", "title": "\ud638\ud154\uc9c0\uc9c0\ud5a5"}, {"latitude": "37.4641121211", "price": 360000, "star": 3, "longitude": "126.713036023", "title": "\uccbc\uc2dc\ud638\ud154"}, {"latitude": "37.7887858535", "price": 200000, "star": 4, "longitude": "126.688800819", "title": "QHOTEL"}, {"latitude": "37.5072882289", "price": 480000, "star": 5, "longitude": "126.750717248", "title": "\ud50c\ub85c\uccb4"}, {"latitude": "37.3023798311", "price": 340000, "star": 5, "longitude": "126.862407565", "title": "\ubc14\uc778\ud638\ud154"}, {"latitude": "37.4612858415", "price": 400000, "star": 5, "longitude": "126.683017361", "title": "\ub85c\uc9c0\ud638\ud154"}, {"latitude": "37.6321097095", "price": 240000, "star": 2, "longitude": "126.490962668", "title": "\ud504\ub808\uc2dc\uc544\uad00\uad11\ud638\ud154"}, {"latitude": "37.2229834465", "price": 380000, "star": 2, "longitude": "127.07450319", "title": "\ubbf8\ub178\uc2a4\ud638\ud154"}, {"latitude": "37.2232796382", "price": 460000, "star": 5, "longitude": "127.07435309", "title": "\ud638\ud154\uc708\uc800"}, {"latitude": "37.4852852886", "price": 520000, "star": 5, "longitude": "126.856759884", "title": "\ud30c\ub780\ub3d9\ubb3c\uc6d0"}, {"latitude": "37.639040184", "price": 200000, "star": 5, "longitude": "127.354773643", "title": "A\ud638\ud154"}, {"latitude": "37.5021863012", "price": 260000, "star": 3, "longitude": "127.088886173", "title": "THE\ubc1c\ub77c\ub2f9\ud638\ud154"}, {"latitude": "37.3095205282", "price": 320000, "star": 1, "longitude": "126.868493284", "title": "\uc5d0\uc2a4\uc5d8 \ubd80\ud2f0\ud06c"},